id,osm_id,name,number,street,postal_code,city,country,country_code,status,lat,lon,website,phone,fax,year,stats,tags,description
0105302,,Musée Départemental des Pays De l'Ain,,,,BOURG-EN-BRESSE,France,fr,open,,,,,,2018,payant:0;gratuit:0;label-date:01/02/2003,label:musee de france,
0119201,1357668479,Musée Archéologique,,Place de l'Église,01580,Izernore,France,fr,open,46.220134,5.5548124,,,,2018,payant:1644;gratuit:2174;label-date:01/02/2003,label:musee de france,
0128301,1536396604,Musée du Peigne et de la Plasturgie,,Rue Capitaine Montreal,01100,Veyziat,France,fr,open,46.2607789,5.6465246,,,,2018,payant:1509;gratuit:2397;label-date:01/02/2003,label:musee de france,
0319002,,Centre National du Costume de Scène et de la Scénographie,,,,MOULINS,France,fr,open,,,,,,2018,payant:72733;gratuit:21431;label-date:23/10/2009,label:musee de france,
0701001,4424167099,Musée Vivarois César Filhol,15,Rue Jean-Baptiste Bechetoille,07100,Annonay,France,fr,closed,45.2408002,4.6680351,,,,2018,payant:0;gratuit:0;label-date:01/02/2003,label:musee de france,
0731601,68332777,Musée et Site Archéologiques,,Rue des Ruines,07130,Soyons,France,fr,open,44.8879269,4.850776295600438,,,,2018,payant:12670;gratuit:2040;label-date:01/02/2003,label:musee de france,
7428102,5537445278,Musée du Chablais,2,Rue Michaud,74200,Thonon-les-Bains,France,fr,open,46.3735929,6.4782107,,,,2018,payant:1179;gratuit:1656;label-date:01/02/2003,label:musee de france,
3819101,,Musée d'Huez et de l'Oisans,,,,ALPE D'HUEZ,France,fr,open,,,,,,2018,payant:0;gratuit:6949;label-date:01/02/2003,label:musee de france,
3818508,35081222,Musée de la Résistance de la Déportation de l'Isère,,Rue Hébert,38000,Grenoble,France,fr,open,45.19011945,5.735202775033237,,,,2018,payant:0;gratuit:36163;label-date:01/02/2003,label:musee de france,
3818507,2388638743,Musée Stendhal,20,Grande Rue,38000,Grenoble,France,fr,open,45.1915799,5.7281471,,,,2018,payant:451;gratuit:4112;label-date:01/02/2003,label:musee de france,
3818502,1102624,Musée Dauphinois,30,Rue Maurice Gignoux,38031,Grenoble,France,fr,open,45.19514890000001,5.727071788552173,,,,2018,payant:0;gratuit:84194;label-date:01/02/2003,label:musee de france,
3819001,1869973658,Maison du Patrimoine de Hières-sur-Amby,,Montée de la Cure,38118,Hières-sur-Amby,France,fr,open,45.7970511,5.2932086,,,,2018,payant:7598;gratuit:1122;label-date:01/02/2003,label:musee de france,
4221804,49047701,Musée de la Mine / Site Couriot,3,Boulevard Maréchal Franchet d'Espèrey,69400,Saint-Étienne,France,fr,open,45.4382508,4.376131713032282,,,,2018,payant:30551;gratuit:23101;label-date:01/02/2003,label:musee de france,
4221802,63340891,Musée d'Art et d'Industrie,2,Place Louis Comte,42000,Saint-Étienne,France,fr,open,45.4314634,4.386849541030928,,,,2018,payant:16545;gratuit:14659;label-date:01/02/2003,label:musee de france,
4227901,2471969138,Musée des Civilisations : Daniel Pouget,,Square de la Résistance,42170,Saint-Just-Saint-Rambert,France,fr,open,45.5008625,4.2426518,,,,2018,payant:3926;gratuit:1992;label-date:01/02/2003,label:musee de france,
4231801,,Musée Rural,,,,USSON-EN-FOREZ,France,fr,open,,,,,,2018,payant:2985;gratuit:1444;label-date:01/02/2003,label:musee de france,
6311301,67015490,Musée d'Archéologie Bargoin,,Place Louis Deteix,63100,Clermont-Ferrand,France,fr,open,45.79392705,3.1162223146769588,,,,2018,payant:3096;gratuit:19947;label-date:01/02/2003,label:musee de france,
6324701,,Musée des Peintres de l'Ecole de Murols,,,,MUROL,France,fr,open,,,,,,2018,payant:3635;gratuit:130;label-date:01/02/2003,label:musee de france,
6900601,312877023,Musée Barthélemy-Thimonnier,,Rue du Nord,69550,Amplepuis,France,fr,open,45.9729166,4.3306812,,,,2018,payant:1604;gratuit:1679;label-date:10/05/2005,label:musee de france,
6901801,1788408922,Musée Folklorique et Traditions Populaires Marius Audin,62,Place de l'Hôtel de Ville,69430,Beaujeu,France,fr,open,46.154402,4.5870811,,,,2018,payant:454;gratuit:494;label-date:01/02/2003,label:musee de france,
6912302,440270631,Musée des Arts Décoratifs,,Autoroute du Soleil,69002,Lyon,France,fr,open,45.732677800000005,4.818160692638674,,,,2018,payant:0;gratuit:0;label-date:2003-02-01 00:00:00,label:musee de france,
6938502,88526510,Lugdunum - Musée et Théâtres Romains,,Rue Cléberg,69005,Lyon,France,fr,open,45.760301,4.820729447863249,,,,2018,payant:42202;gratuit:82820;label-date:01/02/2003,label:musee de france,
6912304,62271798,Musée de l'Imprimerie et de la Communication Graphique,,Rue de la Poulaillerie,69002,Lyon,France,fr,open,45.76427995,4.8347027871875,,,,2018,payant:23530;gratuit:20865;label-date:10/05/2005,label:musee de france,
6938603,440270631,Musée des Confluences,,Autoroute du Soleil,69002,Lyon,France,fr,open,45.732677800000005,4.818160692638674,,,,2018,payant:340291;gratuit:340292;label-date:14/01/2011,label:musee de france,
6916801,,Musée Henri Malartre,,,,ROCHETAILLEE-SUR-SAONE,France,fr,open,,,,,,2018,payant:14378;gratuit:16811;label-date:01/02/2003,label:musee de france,
2111401,272998829,Musée de la Sidérurgie Grande Forge,,D 905,21500,Buffon,France,fr,closed,47.64955205,4.261698831211838,,,,2018,payant:0;gratuit:0;label-date:01/02/2003,label:musee de france,
2115401,,Musée du Pays Châtillonnais - Trésor de Vix,,,,CHATILLON-SUR-SEINE,France,fr,open,,,,,,2018,payant:12233;gratuit:4925;label-date:01/02/2003,label:musee de france,
2146401,4737197736,Musée Municipal,,Rue Camille Rodier,21700,Nuits-Saint-Georges,France,fr,open,47.1386701,4.9505695,,,,2018,payant:390;gratuit:5124;label-date:01/02/2003,label:musee de france,
2505607,7345774337,Muséum de Besançon,,Chemin de Ronde de la Citadelle,25000,Besançon,France,fr,open,47.2285217,6.034794,,,,2018,payant:187034;gratuit:0;label-date:01/02/2003,label:musee de france,
2505601,9493688,Musée des Beaux-Arts et d'Archéologie,,Place de la Révolution,25000,Besançon,France,fr,open,47.2402151,6.023512568897798,,,,2018,payant:0;gratuit:31215;label-date:06/01/2002,label:musee de france,
2541801,33921375,Musée de Plein Air des Maisons Comtoises,,Rue du Musée,25360,Nancray,France,fr,open,47.23771675,6.184408422290256,,,,2018,payant:30796;gratuit:13127;label-date:01/02/2003,label:musee de france,
2543401,87617807,Musée-Maison Natale Gustave Courbet,1,Rue de la Froidière,25290,Ornans,France,fr,open,47.1050435,6.147763179625452,,,,2018,payant:21820;gratuit:16365;label-date:01/02/2003,label:musee de france,
7027901,7508378482,Musée Baron Martin,,Tertre du Château,70100,Gray,France,fr,open,47.4464565,5.5938421,,,,2018,payant:1514;gratuit:2094;label-date:01/02/2003,label:musee de france,
3901302,2637893946,Musée de la Vigne et du Vin,,Passage Saint-Vernier,39600,Arbois,France,fr,open,46.9035466,5.7751443,,,,2018,payant:3953;gratuit:2881;label-date:01/02/2003,label:musee de france,
3919801,946483217,Musée des Beaux-Arts,,Rue des Arènes,39100,Dole,France,fr,open,47.0896386,5.4891469,,,,2018,payant:0;gratuit:23507;label-date:01/02/2003,label:musee de france,
3930001,631011962,Musée d'Archéologie,,Place Philibert de Chalon,39000,Lons-le-Saunier,France,fr,closed,46.6760636,5.5535325,,,,2018,payant:0;gratuit:0;label-date:01/02/2003,label:musee de france,
5806201,3618004518,Musée du Septennat,,Place du Château,58120,Château-Chinon (Ville),France,fr,open,47.0672537,3.9351818,,,,2018,payant:6963;gratuit:1633;label-date:01/02/2003,label:musee de france,
5806202,3618004518,Musée du Costume,,Place du Château,58120,Château-Chinon (Ville),France,fr,open,47.0672537,3.9351818,,,,2018,payant:2684;gratuit:894;label-date:01/02/2003,label:musee de france,
5807901,2627307760,Musée d'Art et d'Histoire Romain Rolland,,Avenue de la République,58500,Clamecy,France,fr,open,47.4603634,3.5204872,,,,2018,payant:1934;gratuit:1822;label-date:01/02/2003,label:musee de france,
5819403,339392015,Musée Archéologique du Nivernais (Porte du Croux),,Rue des Ouches,58000,Nevers,France,fr,open,46.9882494,3.1580768,,,,2018,payant:255;gratuit:851;label-date:01/02/2003,label:musee de france,
7107601,,Musée Denon,,,,CHALON-SUR-SAONE,France,fr,open,,,,,,2018,payant:0;gratuit:10715;label-date:01/02/2003,label:musee de france,
7110602,2239784876,Musée du Prieuré de Charolles,4,Rue du Prieuré,71120,Charolles,France,fr,open,46.4323423,4.2799145,,,,2018,payant:1343;gratuit:1616;label-date:01/02/2003,label:musee de france,
7115301,2018713809,Ecomusée de la Communauté Le Creusot-Monceau-Les-Mines,,Rue Jules Guesde,71200,Le Creusot,France,fr,open,46.8055361,4.424299,,,,2018,payant:12135;gratuit:10004;label-date:01/02/2003,label:musee de france,
7135101,3617522815,Ecomusée de la Bresse Bourguignonne,,Rue du Château,71270,Pierre-de-Bresse,France,fr,open,46.8828547,5.2614005,,,,2018,payant:22620;gratuit:18476;label-date:01/02/2003,label:musee de france,
7144001,,Musée de Bibracte,,,,SAINT-LEGER-SOUS BEUVRAY,France,fr,open,,,,,,2018,payant:36635;gratuit:7128;label-date:17/11/2017,label:musee de france,
7154302,7419064526,Musée Bourguignon -  Perrin de Puycousin,,Rue de l'Hôpital,71700,Tournus,France,fr,closed,46.562054,4.9109128,,,,2018,payant:0;gratuit:0;label-date:01/02/2003,label:musee de france,
8902402,62636018,Musée d'Art et d'Histoire,,Rue Cochois,89000,Auxerre,France,fr,open,47.8005184,3.5725156901166075,,,,2018,payant:0;gratuit:31269;label-date:01/02/2003,label:musee de france,
8902501,3050054378,Musée de l'Avallonnais Jean Després,5,Rue du Collège,89200,Avallon,France,fr,open,47.4869881,3.9065509,,,,2018,payant:3046;gratuit:1028;label-date:01/02/2003,label:musee de france,
8947201,,Musée d'Art et d'Histoire du Puisaye,,,,VILLIERS-SAINT-BENOIT,France,fr,open,,,,,,2018,payant:339;gratuit:974;label-date:01/02/2003,label:musee de france,
2910401,53993190,Musée de l'Ancienne Abbaye de Landévennec,,Rue de L'Abbaye,29560,Landévennec,France,fr,open,48.290110150000004,-4.267076054572087,,,,2018,payant:24412;gratuit:3955;label-date:30/05/2017,label:musee de france,
3528801,3275333600,Musée International du Long-Cours Cap-Hornier,,Cale Solidor,35400,Saint-Malo,France,fr,open,48.6340431,-2.0260137,,,,2018,payant:7764;gratuit:7061;label-date:01/02/2003,label:musee de france,
5603401,93998149,Musée de Préhistoire J. Miln- Z. Le-Rouzic,10,Place de la Chapelle,56340,Carnac,France,fr,open,47.584818999999996,-3.0782984382775096,,,,2018,payant:28439;gratuit:5894;label-date:01/02/2003,label:musee de france,
5609001,243636775,Ecomusée Industriel des Forges,,Rue des Mimosas,56650,Inzinzac-Lochrist,France,fr,open,47.823174300000005,-3.2555253999999927,,,,2018,payant:1673;gratuit:1935;label-date:01/02/2003,label:musee de france,
5618102,2854735857,Musée de la Compagnie des Indes,,Grand pont,56290,Port-Louis,France,fr,open,47.7106223,-3.3637818,,,,2018,payant:38691;gratuit:32753;label-date:01/02/2003,label:musee de france,
5622801,,Musée de la Résistance Bretonne,,,,SAINT-MARCEL - MALESTROIT,France,fr,open,,,,,,2018,payant:11362;gratuit:2488;label-date:01/02/2003,label:musee de france,
5626003,,"La Cohue, Musée des Beaux-Arts de vannes",,,,VANNES,France,fr,open,,,,,,2018,payant:5923;gratuit:170396;label-date:01/02/2003,label:musee de france,
1803306,6604772585,Musée des Meilleurs Ouvriers de France,,Place Étienne Dolet,18000,Bourges,France,fr,open,47.0814193,2.3993842,,,,2018,payant:0;gratuit:0;label-date:01/02/2003,label:musee de france,
1803305,219021603,Musée d'Histoire Naturelle Gabriel Foucher,,Rue Leonide Bourges,95430,Butry-sur-Oise,France,fr,open,49.09024075,2.200912995103998,,,,2018,payant:21319;gratuit:12247;label-date:01/02/2003,label:musee de france,
1819701,2126258013,Musée Saint-Vic,,Cours Manuel,18200,Saint-Amand-Montrond,France,fr,open,46.7214136,2.507645,,,,2018,payant:0;gratuit:4792;label-date:01/02/2003,label:musee de france,
2808502,276905,Muséum des Sciences Naturelles et de Préhistoire,,,28000,Chartres,France,fr,open,48.4438601,1.4881434,,,,2018,payant:0;gratuit:10000;label-date:01/02/2003,label:musee de france,
2808504,255603,Conservatoire du Machinisme et des Pratiques Agricoles,,,28300,Mainvilliers,France,fr,open,48.4489382,1.4580047,,,,2018,payant:8965;gratuit:25845;label-date:01/02/2003,label:musee de france,
2808801,,Musée des Beaux-Arts et d'Histoire Naturelle,,,,CHATEAUDUN,France,fr,open,,,,,,2018,payant:2425;gratuit:6226;label-date:01/02/2003,label:musee de france,
3604401,,Musées de Châteauroux - Hôtel Bertrand,,,,CHATEAUROUX,France,fr,open,,,,,,2018,payant:3804;gratuit:12494;label-date:01/02/2003,label:musee de france,
3707201,,"Le Carroi, Musée d’Arts et d’Histoire",,,,CHINON,France,fr,open,,,,,,2018,payant:2284;gratuit:1425;label-date:01/02/2003,label:musee de france,
3711301,2188754054,Musée de Préhistoire du Grand Pressigny,,Rue des Remparts,37350,Le Grand-Pressigny,France,fr,open,46.9218966,0.8034128,,,,2018,payant:13212;gratuit:3262;label-date:30/04/2002,label:musee de france,
3719601,,Musée de l'Hôtel de Ville,,,,RICHELIEU,France,fr,open,,,,,,2018,payant:4376;gratuit:419;label-date:01/02/2003,label:musee de france,
3724201,207799176,Ecomusée du Véron,80,Route de Candes,37420,Savigny-en-Véron,France,fr,open,47.20943595,0.1244346983061503,,,,2018,payant:3608;gratuit:5109;label-date:18/07/2002,label:musee de france,
3726105,40514601,Musée du Compagnonnage,2,Place Anatole France,37000,Tours,France,fr,open,47.39641815,0.6869935971502714,,,,2018,payant:23214;gratuit:18980;label-date:01/02/2003,label:musee de france,
4119401,106812759,Musée de Sologne,,Avenue François Mitterrand,41200,Romorantin-Lanthenay,France,fr,closed,47.3558188,1.750180813971796,,,,2018,payant:0;gratuit:0;label-date:01/02/2003,label:musee de france,
4523402,,"Hôtel Cabu, Musée d'Histoire et d'Archéologie",,,,ORLEANS,France,fr,open,,,,,,2018,payant:10629;gratuit:2531;label-date:01/02/2003,label:musee de france,
4523403,152119467,Musée des Beaux-Arts,1,Rue Fernand Rabier,45000,Orléans,France,fr,open,47.90265,1.9097666942148757,,,,2018,payant:33816;gratuit:15418;label-date:06/01/2002,label:musee de france,
2A00401,66274796,Musée Napoléonien,50-52,Rue Cardinal Fesch,20000,Ajaccio,France,fr,closed,41.9218958,8.738913555286306,,,,2018,payant:0;gratuit:0;label-date:01/02/2003,label:musee de france,
2B00901,,Musée d'archéologie d'Aleria - Jérôme Carcopino,,,,ALERIA,France,fr,open,,,,,,2018,payant:28723;gratuit:3174;label-date:01/02/2003,label:musee de france,
0810502,,Maison des Ailleurs - Arthur Rimbaud (Annexe musée Arthur Rimbaud),,,,CHARLEVILLE-MEZIERES,France,fr,open,,,,,,2018,payant:4882;gratuit:3308;label-date:01/02/2003,label:musee de france,
0840901,1874188907,Musée du Château-Fort,,Avenue de la Dernière Cartouche,08140,Bazeilles,France,fr,open,49.6817859,4.9754729,,,,2018,payant:50826;gratuit:3977;label-date:01/02/2003,label:musee de france,
1006401,7820341496,Musée Napoléon Ier,,Rue du Maréchal Valée,10500,Brienne-le-Château,France,fr,open,48.3890775,4.527967,,,,2018,payant:7684;gratuit:3001;label-date:01/02/2003,label:musee de france,
1026101,,Musée de la Résistance,,,,MUSSY-SUR-SEINE,France,fr,open,,,,,,2018,payant:140;gratuit:0;label-date:01/02/2003,label:musee de france,
1038702,73124719,Musée Vauluisant - Musée Historique de Troyes et de la Champagne,,Rue de la Crosse,10000,Troyes,France,fr,open,48.29995,4.082291342005172,,,,2018,payant:0;gratuit:0;label-date:01/02/2003,label:musee de france,
1038701,73123253,Muséum d'Histoire Naturelle (Musée Pic Saint-Loup),61,Rue de la Cité,10000,Troyes,France,fr,open,48.3007334,4.080420707848399,,,,2018,payant:0;gratuit:0;label-date:01/02/2003,label:musee de france,
6733901,3451539391,Musée de la Poterie,1-13,Rue du Terrain,67116,Reichstett,France,fr,open,48.6480723,7.7520884,,,,2018,payant:1875;gratuit:962;label-date:01/02/2003,label:musee de france,
6706101,2399054638,Musée du Pays de Hanau - Histoire et Vies d’un Territoire,,Rue du Canal,67330,Bouxwiller,France,fr,open,48.8249535,7.4835103,,,,2018,payant:1803;gratuit:5646;label-date:01/02/2003,label:musee de france,
6718001,48609011,Musée Historique,,Rue du Sel,67500,Haguenau,France,fr,open,48.81306145,7.791507522753506,,,,2018,payant:4586;gratuit:754;label-date:01/02/2003,label:musee de france,
6743701,1801327289,Musée du Château des Rohan,,Place du Général de Gaulle,67700,Saverne,France,fr,open,48.7418466,7.3639083,,,,2018,payant:3968;gratuit:3678;label-date:01/02/2003,label:musee de france,
6748207,22290183,Musée Historique,2,Rue du Vieux Marché aux Poissons,67065,Strasbourg,France,fr,open,48.579946,7.750767983802181,,,,2018,payant:33524;gratuit:28427;label-date:01/02/2003,label:musee de france,
6748202,239825772,Musée Archéologique,,Rue du Bain-aux-Roses,67065,Strasbourg,France,fr,open,48.5808521,7.7525857,,,,2018,payant:26663;gratuit:30681;label-date:06/01/2002,label:musee de france,
6748206,491674514,Musée de l'Œuvre Notre-Dame,,Rue du Dévidoir,67065,Strasbourg,France,fr,open,48.580848200000005,7.751242401547248,,,,2018,payant:19856;gratuit:32103;label-date:01/02/2003,label:musee de france,
5212101,,Musée des Beaux-Arts et d'Archéologie,,,,CHAUMONT,France,fr,open,,,,,,2018,payant:2148;gratuit:2162;label-date:01/02/2003,label:musee de france,
6800401,5144762817,Musée Sundgauvien d'Altkirch,38,Rue de Luppach,68480,Vieux-Ferrette,France,fr,open,47.5040397,7.3041592,,,,2018,payant:382;gratuit:4962;label-date:01/02/2003,label:musee de france,
6806603,47576073,Musée Bartholdi,30,Rue des Marchands,68000,Colmar,France,fr,open,48.0766092,7.357482163734775,,,,2018,payant:17045;gratuit:8218;label-date:01/02/2003,label:musee de france,
6822409,449007880,Musée Minéralogique de la Société Industrielle de Mulhouse,,Autodrome du Musée de l'Automobile,68100,Mulhouse,France,fr,open,47.7612848,7.327971551196445,,,,2018,payant:0;gratuit:60;label-date:01/02/2003,label:musee de france,
6823101,6795990385,Musée Vauban,,Place de la Porte de Belfort,68600,Neuf-Brisach,France,fr,open,48.0153387,7.526694,,,,2018,payant:2257;gratuit:281;label-date:01/02/2003,label:musee de france,
6827702,1138681,Musée du Dolder,16,Rue du Général de Gaulle,68340,Riquewihr,France,fr,open,48.166885,7.298560434089087,,,,2018,payant:4203;gratuit:1169;label-date:01/02/2003,label:musee de france,
6834301,261857352,Ecomusée d'Alsace,,Chemin des Remparts,68190,Ungersheim,France,fr,open,47.85306625,7.2871333354354615,,,,2018,payant:155543;gratuit:15548;label-date:01/02/2003,label:musee de france,
5150702,,Musée de l'Argonne Viard-Morel,,,,SAINTE-MENEHOULD,France,fr,open,,,,,,2018,payant:440;gratuit:1347;label-date:01/02/2003,label:musee de france,
5430001,99542401,Musée du Château de Montaigu,,Avenue Général de Gaulle,54140,Jarville-la-Malgrange,France,fr,open,48.666507499999994,6.208713471590913,,,,2018,payant:634;gratuit:1256;label-date:01/02/2003,label:musee de france,
5443101,,"""Musée """"au Fil du Papier""""""",,,,PONT-A-MOUSSON,France,fr,open,,,,,,2018,payant:1452;gratuit:2249;label-date:01/02/2003,label:musee de france,
5502901,1491444871,Musée Barrois,,,55000,Bar-le-Duc,France,fr,open,48.7717157,5.1560282,,,,2018,payant:3105;gratuit:7592;label-date:01/02/2003,label:musee de france,
5552701,608529050,Musée d'Argonne,,Ruelle du Promenade,55270,Varennes-en-Argonne,France,fr,open,49.22527795,5.031545268167998,,,,2018,payant:629;gratuit:0;label-date:01/02/2003,label:musee de france,
5725601,309445273,Musée Départemental de la Guerre de 70,11,Rue de Metz,57130,Gravelotte,France,fr,open,49.114021050000005,6.029759781346406,,,,2018,payant:8636;gratuit:4735;label-date:01/02/2003,label:musee de france,
5753701,823312790,Musée de la Mine - Carreau Wendel,,Rue Saint-Charles,57540,Petite-Rosselle,France,fr,open,49.2039277,6.8630557,,,,2018,payant:34315;gratuit:12000;label-date:01/02/2003,label:musee de france,
9712003,65839623,Musée l'Herminier,,Rue Sadi Carnot,97110,Pointe-à-Pitre,France,fr,closed,16.238335,-61.537012293084736,,,,2018,payant:0;gratuit:0;label-date:01/02/2003,label:musee de france,
0216801,5425520722,Musée Jean de la Fontaine,,Rue Jean De La Fontaine,02400,Château-Thierry,France,fr,open,49.0467222,3.4001157,,,,2018,payant:8088;gratuit:1509;label-date:01/02/2003,label:musee de france,
5904301,81168271,Musée Benoît de Puydt,,Rue des Viviers,59270,Bailleul,France,fr,open,50.7407272,2.7345033127504697,,,,2018,payant:2169;gratuit:2801;label-date:01/02/2003,label:musee de france,
5905301,54367331,Forum Antique de Bavay,,Sentier Promenade du Rempart,59570,Bavay,France,fr,open,50.29911105,3.79156153828687,,,,2018,payant:22674;gratuit:7559;label-date:01/02/2003,label:musee de france,
5909201,115800970,Musée de l'Ostrevant,16,Rue de Bouchain,7800,Ath,België / Belgique / Belgien,be,open,50.630392799999996,3.779913004544891,,,,2018,payant:113;gratuit:990;label-date:01/02/2003,label:musee de france,
5912201,6098585497,Musée Municipal de Cambrai,15,Rue de l'Épée,59400,Cambrai,France,fr,open,50.1734096,3.2299021,,,,2018,payant:706;gratuit:7885;label-date:01/02/2003,label:musee de france,
5918303,76418840,Musée Portuaire,,Rue du Gouvernement,59140,Dunkerque,France,fr,open,51.03788695,2.371791835328942,,,,2018,payant:30153;gratuit:31744;label-date:01/02/2003,label:musee de france,
5920501,1719221067,Musée Municipal d'Escaudain,,Rue Paul Bert,59124,Escaudain,France,fr,open,50.3330601,3.3443559,,,,2018,payant:0;gratuit:479;label-date:01/02/2003,label:musee de france,
5937501,,Musée d'Histoire Locale de Marchiennes,,,,MARCHIENNES,France,fr,open,,,,,,2018,payant:143;gratuit:396;label-date:01/02/2003,label:musee de france,
5951201,799753358,La Piscine - Musée d'Art et d'Industrie André Diligent de Roubaix,,Rue Gustave Charpentier,59170,Croix,France,fr,open,50.67030335,3.1729459395646256,,,,2018,payant:63018;gratuit:79985;label-date:01/02/2003,label:musee de france,
5960601,626582331,Musée des Beaux-Arts,,Rue des Incas,59300,Valenciennes,France,fr,open,50.3575723,3.5306353,,,,2018,payant:65635;gratuit:22885;label-date:06/01/2002,label:musee de france,
6014301,6253491677,Musée Pillon,45,Rue de l'Hôtel de Ville,60240,Chaumont-en-Vexin,France,fr,open,49.2623827,1.882077,,,,2018,payant:0;gratuit:780;label-date:01/02/2003,label:musee de france,
6015903,105680987,Musée national de la Voiture et du Tourisme (Annexe du musée National du Château de Compiègne),,Rue de la Baguette,60200,Compiègne,France,fr,open,49.417504449999996,2.8211998626844323,,,,2018,payant:0;gratuit:0;label-date:06/01/2002,label:musee de france,
6047101,2403483347,Musée du Noyonnais,,Rue de l'Évéché,60400,Noyon,France,fr,open,49.5815691,3.0004427,,,,2018,payant:990;gratuit:1532;label-date:01/02/2003,label:musee de france,
6061202,142255492,Musée d'Art et d'Archéologie,,Place Notre-Dame,60300,Senlis,France,fr,open,49.2064225,2.5866285006288354,,,,2018,payant:3679;gratuit:7287;label-date:01/02/2003,label:musee de france,
6219301,,Musée des Beaux-Arts et de la Dentelle,,,,CALAIS,France,fr,open,,,,,,2018,payant:11405;gratuit:14088;label-date:01/02/2003,label:musee de france,
6282601,156284015,Musée du Touquet Paris-Plage,,Avenue du Château,62520,Le Touquet-Paris-Plage,France,fr,open,50.515136,1.6082098695652083,,,,2018,payant:7012;gratuit:8485;label-date:01/02/2003,label:musee de france,
8002101,140247228,Musée de Picardie,,Rue Jules Lardière,80000,Amiens,France,fr,open,49.890586,2.2952183665769486,,,,2018,payant:0;gratuit:1776;label-date:06/01/2002,label:musee de france,
8062001,193012404,Musée Alfred Danicourt,,Rue de la Résistance,80200,Péronne,France,fr,open,49.929138,2.9306000138110875,,,,2018,payant:0;gratuit:2263;label-date:01/02/2003,label:musee de france,
9201203,,"Albert-Kahn, Musée et Jardin Départementaux",,,,BOULOGNE-BILLANCOURT,France,fr,open,,,,,,2018,payant:1704;gratuit:1096;label-date:01/02/2003,label:musee de france,
9206303,,Musée d'Histoire Locale - Mémoire de la Ville,,,,RUEIL-MALMAISON,France,fr,open,,,,,,2018,payant:0;gratuit:5639;label-date:01/02/2003,label:musee de france,
9207101,1620203330,Musée du Domaine Départemental de Sceaux,,Allée de la Duchesse,92330,Sceaux,France,fr,open,48.7742577,2.300099,,,,2018,payant:12397;gratuit:11584;label-date:01/02/2003,label:musee de france,
7510508,7444,Galerie d'Anatomie Comparée et de Paléontologie (Muséum d'Histoire Naturelle),,,,Paris,France,fr,open,48.8566969,2.3514616,,,,2018,payant:101280;gratuit:160425;label-date:06/01/2002,label:musee de france,
7510507,7444,Galerie de Botanique (Muséum National National d'Histoire Naturelle),,,,Paris,France,fr,open,48.8566969,2.3514616,,,,2018,payant:8036;gratuit:2428;label-date:06/01/2002,label:musee de france,
7511701,,Etablissement public du musée national J.J. Henner et du musée national G. Moreau/ Musée National Jean-Jacques Henner,,,,PARIS,France,fr,open,,,,,,2018,payant:6549;gratuit:6104;label-date:06/01/2002,label:musee de france,
7510808,,"Petit Palais, Musée des Beaux-Arts de la ville de Paris",,,,PARIS,France,fr,open,,,,,,2018,payant:397257;gratuit:806553;label-date:08/07/2004,label:musee de france,
7510905,84511123,Musée de la Vie Romantique,16,Rue Chaptal,75009,Paris,France,fr,open,48.88120505,2.333539383011497,,,,2018,payant:0;gratuit:62132;label-date:08/07/2004,label:musee de france,
7510608,153776401,Musée Zadkine,,Passage Commun B6,75006,Paris,France,fr,open,48.84281085,2.333799238079097,,,,2018,payant:32835;gratuit:0;label-date:08/07/2004,label:musee de france,
7510702,3303412974,Musée des Plans et Reliefs,,Cour de la Valeur,75007,Paris,France,fr,open,48.8564589,2.3132374,,,,2018,payant:168491;gratuit:4621;label-date:06/01/2002,label:musee de france,
7511001,56640163,Musée de la Publicité (MAD),6,Place Paul Painlevé,75005,Paris,France,fr,open,48.85064945,2.3435643010185183,,,,2018,payant:0;gratuit:0;label-date:06/01/2002,unlabel:musee de france,
7510610,,Musée de l'Ecole Nationale Supérieure des Beaux-Arts,,,,PARIS,France,fr,open,,,,,,2018,payant:0;gratuit:57000;label-date:30/05/2017,label:musee de france,
7702201,,Musée de l'Ecole de Barbizon - Auberge Ganne,,,,BARBIZON,France,fr,open,,,,,,2018,payant:10297;gratuit:9606;label-date:01/02/2003,label:musee de france,
7710801,1564237,Musée Municipal de Chelles Alfred Bonno,,Rue Louis Eterlet,77500,Chelles,France,fr,open,48.8778455,2.591143882278835,,,,2018,payant:0;gratuit:3121;label-date:01/02/2003,label:musee de france,
7713101,7468048677,Musée Municipal des Capucins,,Rue de la Gare,37150,Francueil,France,fr,open,47.3277359,1.0894886,,,,2018,payant:3303;gratuit:1540;label-date:01/02/2003,label:musee de france,
7718601,214892,Musée du Château de Fontainebleau,,Cour du Cheval Blanc,77300,Fontainebleau,France,fr,open,48.4023346,2.7005387366907625,,,,2018,payant:201416;gratuit:246891;label-date:06/01/2002,label:musee de france,
7728803,112363959,Musée de la Gendarmerie Nationale,1-3,Rue Émile Leclerc,77000,Melun,France,fr,open,48.54554555,2.6529119346368715,,,,2018,payant:10938;gratuit:8392;label-date:14/01/2011,label:musee de france,
7737901,2281215620,Musée de Provins et du Provinois,,Rue du Palais,77160,Provins,France,fr,open,48.5615816,3.2907221,,,,2018,payant:13417;gratuit:6127;label-date:01/02/2003,label:musee de france,
7744501,4895409053,Ecomusée,,Rue de la Libération,77176,Savigny-le-Temple,France,fr,closed,48.5745236,2.5833427,,,,2018,payant:0;gratuit:0;label-date:01/02/2003,label:musee de france,
7753301,249312019,Musée départemental Stéphane Mallarmé,,Quai Stéphane Mallarmé,77870,Vulaines-sur-Seine,France,fr,open,48.43122295,2.747069924160446,,,,2018,payant:861;gratuit:2818;label-date:01/02/2003,label:musee de france,
9401701,109523782,Musée de la Résistance Nationale,,Avenue Marx Dormoy,94500,Champigny-sur-Marne,France,fr,open,48.807266999999996,2.5252640000000017,,,,2018,payant:0;gratuit:165;label-date:01/02/2003,label:musee de france,
9406801,,Musée de Saint-Maur - Villa Médicis,,,,LA VARENNE-SAINT-HILAIRE,France,fr,open,,,,,,2018,payant:1620;gratuit:3686;label-date:11/01/2003,label:musee de france,
9404601,2751882654,Musée Fragonard,,Avenue du Général de Gaulle,94700,Maisons-Alfort,France,fr,open,48.8128139,2.4233528,,,,2018,payant:4273;gratuit:4630;label-date:05/07/2006,label:musee de france,
9501801,80773777,Musée du Vieil Argenteuil,,Rue de Rubelles,95390,Saint-Prix,France,fr,open,49.01175795,2.264040737016648,,,,2018,payant:0;gratuit:3955;label-date:01/02/2003,label:musee de france,
7835001,,Musée Royal de Marly-Louveciennes,,,,LOUVECIENNES,France,fr,closed,,,,,,2018,payant:0;gratuit:0;label-date:01/02/2003,label:musee de france,
7835601,823061902,Musée National de Port Royal des Champs,,Route Forestière de Font Couverte,78114,Trappes,France,fr,open,48.7479939,2.0152509,,,,2018,payant:4938;gratuit:28871;label-date:06/01/2002,label:musee de france,
7836101,1733134564,Musée de l'Hôtel-Dieu,1,Rue Thiers,78200,Mantes-la-Jolie,France,fr,closed,48.9901391,1.7194536,,,,2018,payant:0;gratuit:0;label-date:01/02/2003,label:musee de france,
7838001,1280351055,Musée Victor Aubert,24,Rue Quincampoix,78580,Maule,France,fr,open,48.908778,1.84933,,,,2018,payant:0;gratuit:510;label-date:01/02/2003,label:musee de france,
7820801,1290290099,Musée de la Ville,,Quai François Truffaut,78180,Montigny-le-Bretonneux,France,fr,open,48.7831521,2.042426,,,,2018,payant:2816;gratuit:5858;label-date:01/02/2003,label:musee de france,
7849802,38327851,Musée d'Art et d'Histoire,82,Rue de Villiers,78300,Poissy,France,fr,closed,48.924420600000005,2.028297560090527,,,,2018,payant:0;gratuit:0;label-date:01/02/2003,label:musee de france,
9741101,146919869,Musée Départemental de la Réunion - Musée Léon Dierx,,Rue Sainte Marie,97400,Saint-Denis,France,fr,open,-20.883840050000003,55.450058317623416,,,,2018,payant:4098;gratuit:15255;label-date:01/02/2003,label:musee de france,
9741401,2338401230,Musée des Arts Décoratifs de l’Océan indien (MADOI),,Chemin Maison Rouge,97450,Plateau Goyaves,France,fr,open,-21.266983,55.4113864,,,,2018,payant:8408;gratuit:2404;label-date:01/02/2003,label:musee de france,
9723101,,Musée de La Canne,,,,LES TROIS ILETS,France,fr,open,,,,,,2018,payant:12287;gratuit:2194;label-date:01/02/2003,label:musee de france,
9722001,1149383903,Ecomusée de la Martinique,,N 5,97211,Rivière-Pilote,France,fr,open,14.460341,-60.9094743,,,,2018,payant:6775;gratuit:1708;label-date:01/02/2003,label:musee de france,
2701601,822879929,Musée Municipal Nicolas Poussin,,Rue Sainte-Clotilde,27700,Les Andelys,France,fr,open,49.2459998,1.4197004594256404,,,,2018,payant:1809;gratuit:1612;label-date:01/02/2003,label:musee de france,
5002901,2420808765,Musée du Poiré,,D 489,50720,Barenton,France,fr,open,48.5876546,-0.8064704,,,,2018,payant:998;gratuit:4094;label-date:01/02/2003,label:musee de france,
5014701,68664267,Musée Quesnel-Morinière,2,Rue Quesnel-Morinière,50200,Coutances,France,fr,open,49.0472298,-1.4467416238048025,,,,2018,payant:5990;gratuit:0;label-date:01/02/2003,label:musee de france,
5060101,,Musée du Château,,,,TORIGNI-SUR-VIRE,France,fr,open,,,,,,2018,payant:0;gratuit:575;label-date:01/02/2003,label:musee de france,
6100101,1511784502,Musée des Beaux-Arts et de la Dentelle,,Passage de la Porte de Lancrel,61000,Alençon,France,fr,open,48.4316406,0.0835809,,,,2018,payant:7719;gratuit:6992;label-date:01/02/2003,label:musee de france,
6146401,,Musée Départemental d'Art Sacré,,,,SEES,France,fr,open,,,,,,2018,payant:505;gratuit:270;label-date:01/02/2003,label:musee de france,
7634101,125522834,Musée du Prieuré,,Rue du Prieuré,76700,Harfleur,France,fr,open,49.507423599999996,0.20147308370034867,,,,2018,payant:182;gratuit:1990;label-date:01/02/2003,label:musee de france,
7635103,76087045,Musée de l'Hôtel Dubocage de Bléville,,Rue de l'Abbaye,76600,Le Havre,France,fr,open,49.503292200000004,0.1652970079749255,,,,2018,payant:0;gratuit:8134;label-date:01/02/2003,label:musee de france,
7638401,,"Juliobona, Musée Gallo-Romain de Lillebonne",,,,LILLEBONNE,France,fr,open,,,,,,2018,payant:3372;gratuit:1300;label-date:01/02/2003,label:musee de france,
7641201,,Musée des Traditions et Arts Normands,,,,MARTAINVILLE-EPREVILLE,France,fr,open,,,,,,2018,payant:12376;gratuit:11557;label-date:01/02/2003,label:musee de france,
7654006,64181345,Musée Le Secq des Tournelles,2,Rue Jacques Villon,76000,Rouen,France,fr,open,49.4444344,1.0952946837337665,,,,2018,payant:90830;gratuit:0;label-date:01/02/2003,label:musee de france,
7654005,64181527,Musée des Beaux-Arts,,Esplanade Marcel Duchamp,76000,Rouen,France,fr,open,49.44473675,1.0945818804156213,,,,2018,payant:27874;gratuit:108030;label-date:06/01/2002,label:musee de france,
7662401,1826563,Association de l'Horlogerie Aliermontaise,,,76510,Saint-Nicolas-d'Aliermont,France,fr,open,49.878403,1.2140639,,,,2018,payant:3532;gratuit:1309;label-date:01/02/2003,label:musee de france,
7675801,122011226,Musée Municipal des Ivoires,8,Place du Maréchal Joffre,76190,Yvetot,France,fr,open,49.6173905,0.7551113568840564,,,,2018,payant:615;gratuit:264;label-date:01/02/2003,label:musee de france,
1601502,44840732,Atelier - Musée du Papier,,Rue de Bordeaux,16000,Saint-Cybard,France,fr,open,45.65355635,0.1495325417727163,,,,2018,payant:4206;gratuit:13938;label-date:01/02/2003,label:musee de france,
1601504,,Cité International de la Bande Dessinée et de l'Image - Musée de la Bande Dessinée,,,,ANGOULEME,France,fr,open,,,,,,2018,payant:18666;gratuit:51830;label-date:01/02/2003,label:musee de france,
1700401,64991060,Musée Napoléonien et Africain,,Rue des Remparts,17123,Île-d'Aix,France,fr,open,46.01301115,-1.1746563582783416,,,,2018,payant:13070;gratuit:10594;label-date:06/01/2002,label:musee de france,
1741503,67102698,Musée Archéologique,,Place Bassompierre,17100,Saintes,France,fr,open,45.745257699999996,-0.6286597158380409,,,,2018,payant:510;gratuit:3335;label-date:01/02/2003,label:musee de france,
1741502,136636544,Musée du Présidial,,Rue André Lemoyne,17100,Saintes,France,fr,closed,45.746601749999996,-0.6320098487431683,,,,2018,payant:0;gratuit:0;label-date:01/02/2003,label:musee de france,
2300801,225393416,Musée Départemental de la Tapisserie,,Rue Vieille,23200,Aubusson,France,fr,open,45.9572515,2.170781705882353,,,,2018,payant:30000;gratuit:10000;label-date:17/06/2002,label:musee de france,
7932901,64211578,Musée Henri Barré,,Rue du Bac,79100,Thouars,France,fr,open,46.97362875,-0.21811853555865957,,,,2018,payant:401;gratuit:1887;label-date:01/02/2003,label:musee de france,
2415201,4364598320,Musée Paul Reclus,,Rue Paul Reclus,24250,Domme,France,fr,open,44.8028038,1.2138053,,,,2018,payant:473;gratuit:6746;label-date:01/02/2003,label:musee de france,
3306304,80024893,Musée d'Aquitaine,,Musée d'Aquitaine,33000,Bordeaux,France,fr,open,44.8356189,-0.5746906101232725,,,,2018,payant:50036;gratuit:101573;label-date:06/01/2002,label:musee de france,
3306305,154772662,Muséum d'Histoire Naturelle de Bordeaux,,Place Bardineau,33000,Bordeaux,France,fr,open,44.848504500000004,-0.5799899525187916,,,,2018,payant:0;gratuit:11925;label-date:01/02/2003,label:musee de france,
3306310,6912095875,Musée Goupil,,Cours Pasteur,33000,Bordeaux,France,fr,closed,44.8358149,-0.5749304,,,,2018,payant:0;gratuit:0;label-date:01/02/2003,label:musee de france,
3324302,265021487,Musée Historique ou du Vieux Libourne (Robin),,Avenue de la Gare,,Guîtres,France,fr,closed,45.038131199999995,-0.19740907772227706,,,,2018,payant:0;gratuit:0;label-date:01/02/2003,label:musee de france,
8704101,,Musée René Baubérot,,,,CHATEAUPONSAC,France,fr,open,,,,,,2018,payant:1328;gratuit:741;label-date:01/02/2003,label:musee de france,
8712601,2861736187,Musée Départemental d'Art Contemporain,,Place du Château,87600,Rochechouart,France,fr,open,45.821447,0.8190893,,,,2018,payant:9086;gratuit:7009;label-date:01/02/2003,label:musee de france,
4019201,580649793,Musée Despiau-Wlérick,6,Place Marguerite de Navarre,40000,Mont-de-Marsan,France,fr,open,43.8925268,-0.4993529,,,,2018,payant:0;gratuit:19597;label-date:01/02/2003,label:musee de france,
4028201,5825880178,Musée d'Art et d'Histoire du Cap de Gascogne,,Rue du Général Lamarque,40500,Saint-Sever,France,fr,open,43.7585204,-0.5718845,,,,2018,payant:0;gratuit:2400;label-date:01/02/2003,label:musee de france,
4028601,5681725229,Musée Départemental de la Faïence et des Arts de la table,,Route d'Hagetmau,40320,Samadet,France,fr,open,43.6412514,-0.5106808,,,,2018,payant:3597;gratuit:1146;label-date:01/02/2003,label:musee de france,
4719501,175744724,Musée du Château Henri IV,3,Rue Sederie,47600,Nérac,France,fr,open,44.1360265,0.3418098475080772,,,,2018,payant:8851;gratuit:4268;label-date:01/02/2003,label:musee de france,
6406201,4335473543,Musée Municipal,,Rue du Tennis,64260,Arudy,France,fr,open,43.1016426,-0.4297682,,,,2018,payant:997;gratuit:435;label-date:01/02/2003,label:musee de france,
6444501,,Musée Municipal des Beaux-Arts,,,,PAU,France,fr,open,,,,,,2018,payant:7936;gratuit:12188;label-date:01/02/2003,label:musee de france,
8607001,7280016472,Musée des Traditions Populaires et d'Archéologie,,Impasse Saint-Martial,86300,Chauvigny,France,fr,open,46.5705939,0.6481047,,,,2018,payant:5962;gratuit:1942;label-date:01/02/2003,label:musee de france,
8607801,3087160235,Musée Municipal de Civray,,Avant Cour,37150,Chenonceaux,France,fr,open,47.3267746,1.0672333,,,,2018,payant:0;gratuit:88;label-date:01/02/2003,label:musee de france,
0920701,3241536133,Musée de la Forge,,Rue du Rocher,09000,Foix,France,fr,open,42.9657002,1.6047597,,,,2018,payant:32870;gratuit:0;label-date:01/02/2003,label:musee de france,
1225401,1434993410,Musée des Arts et Métiers Traditionnels,,C 2,12330,Salles-la-Source,France,fr,open,44.437582,2.5141463,,,,2018,payant:4029;gratuit:2410;label-date:01/02/2003,label:musee de france,
3000702,130822767,Musée du Colombier,,Rue Jean Mayodon,30100,Alès,France,fr,open,44.1284065,4.080311817458588,,,,2018,payant:1360;gratuit:9322;label-date:01/02/2003,label:musee de france,
3018906,249023783,Carré d'Art Musée d'Art Contemporain de Nîmes,16,Place de la Maison Carrée,30000,Nîmes,France,fr,open,43.8379778,4.3550651390627815,,,,2018,payant:15086;gratuit:15323;label-date:01/02/2003,label:musee de france,
3018905,41832267,Musée des Beaux-Arts,,Rue de la Cité Foulc,30033,Nîmes,France,fr,open,43.83194295,4.360586484823399,,,,2018,payant:5799;gratuit:8067;label-date:01/02/2003,label:musee de france,
3020202,73758873,Musée Départemental d'Art Sacré du Gard,,Rue Saint-Jacques,30130,Pont-Saint-Esprit,France,fr,open,44.25521465,4.65104364282573,,,,2018,payant:130;gratuit:8075;label-date:01/02/2003,label:musee de france,
3223301,4777291860,Musée Joseph Abeilhé,,Place du Chevalier d'Antras,32230,Marciac,France,fr,open,43.5252665,0.1617874,,,,2018,payant:155;gratuit:52;label-date:01/02/2003,label:musee de france,
3102801,420078229,Musée-Forum de l'Aurignacien,,Chemin des Roquettes,31420,Aurignac,France,fr,open,43.21557205,0.8786885962141049,,,,2018,payant:8846;gratuit:4050;label-date:01/02/2003,label:musee de france,
3147201,3509638044,Musée Archéologique Départemental,,Rue du Musée,31510,Saint-Bertrand-de-Comminges,France,fr,open,43.027071,0.569798,,,,2018,payant:0;gratuit:9237;label-date:01/02/2003,label:musee de france,
3155507,22718219,Musée des Transports et des Communications,,Rue Antonin Mercié,31000,Toulouse,France,fr,open,43.6009417,1.4463433320120154,,,,2018,payant:0;gratuit:0;label-date:01/02/2003,unlabel:musee de france,
3155505,63801451,Musée Georges Labit,17,Rue du Japon,31400,Toulouse,France,fr,open,43.59109665,1.4584515191136354,,,,2018,payant:6292;gratuit:23425;label-date:01/02/2003,label:musee de france,
3155504,22718219,Musée des Augustins,,Rue Antonin Mercié,31000,Toulouse,France,fr,open,43.6009417,1.4463433320120154,,,,2018,payant:49368;gratuit:87764;label-date:06/01/2002,label:musee de france,
6544001,122325318,Musée Massey,,Rue Achille Jubinal,65000,Tarbes,France,fr,open,43.239067000000006,0.07528399186991735,,,,2018,payant:5007;gratuit:5901;label-date:06/10/2002,label:musee de france,
3400301,4134270080,Musée Agathois,5,Rue de la Fraternité,34300,Agde,France,fr,open,43.3118294,3.4686196,,,,2018,payant:1552;gratuit:2004;label-date:01/02/2003,label:musee de france,
3415301,,Maison des Consuls - Musée d’Arts et d’Archéologie,,,,LES MATELLES,France,fr,open,,,,,,2018,payant:1918;gratuit:1633;label-date:01/02/2003,label:musee de france,
3417203,1226892,Musée Fabre,,Cour de la Mosaïque,34062,Montpellier,France,fr,open,43.6117542,3.8801274326001858,,,,2018,payant:226223;gratuit:68054;label-date:06/01/2002,label:musee de france,
3419901,274270736,Musée de Vulliod Saint-Germain,,Impasse Canabassière,34120,Pézenas,France,fr,open,43.46137195,3.4230444718898876,,,,2018,payant:3953;gratuit:1256;label-date:01/02/2003,label:musee de france,
4604201,62114469,Musée Henri Martin,,Rue Émile Zola,46000,Cahors,France,fr,closed,44.4484051,1.4381918459159788,,,,2018,payant:0;gratuit:0;label-date:01/02/2003,label:musee de france,
6620501,188829574,Musée de Tautavel,,Avenue Louis Baixas,66720,Tautavel,France,fr,open,42.815132000000006,2.7501767068631207,,,,2018,payant:44548;gratuit:8500;label-date:01/02/2003,label:musee de france,
8200801,,Musée du Vieil Auvillar,,,,AUVILLAR,France,fr,open,,,,,,2018,payant:3545;gratuit:846;label-date:01/02/2003,label:musee de france,
8207501,89104903,Musée Théodore Calbet,15,Rue Jean de Comère,82170,Grisolles,France,fr,open,43.827752000000004,1.2947097401960788,,,,2018,payant:0;gratuit:2548;label-date:01/02/2003,label:musee de france,
8212101,127805191,Musée d'Histoire Naturelle Victor Brun,,Rue Marie Lafon,82000,Montauban,France,fr,open,44.01688865,1.3514607739557976,,,,2018,payant:1589;gratuit:7062;label-date:01/02/2003,label:musee de france,
8215501,6652846786,Musée de Préhistoire,,Place de la Halle,82140,Saint-Antonin-Noble-Val,France,fr,closed,44.1518591,1.7565481,,,,2018,payant:0;gratuit:0;label-date:01/02/2003,label:musee de france,
4401501,,"Musée de la Fève, Crèches et Traditions Populaires",,,,BLAIN,France,fr,open,,,,,,2018,payant:212;gratuit:2371;label-date:01/02/2003,label:musee de france,
4410902,97962232,Musée d'Art de Nantes,,Quai de la Fosse,44003,Nantes,France,fr,open,47.2067071,-1.5716565976582118,,,,2018,payant:122653;gratuit:203643;label-date:06/01/2002,label:musee de france,
4410907,3473536003,Musée  Départemental Dobrée,,Place Jean V,44003,Nantes,France,fr,open,47.2123071,-1.5658435,,,,2018,payant:7610;gratuit:14731;label-date:01/09/2002,label:musee de france,
4923401,238336580,Musée Jules-Desbois,,Place Jules Desbois,49390,Parçay-les-Pins,France,fr,open,47.4364575,0.16001628939992282,,,,2018,payant:3396;gratuit:1015;label-date:23/10/2002,label:musee de france,
5306201,,Musée d'Art et d'Archéologie Hôtel Fouquet,,,,CHATEAU-GONTIER,France,fr,open,,,,,,2018,payant:951;gratuit:1539;label-date:01/02/2003,label:musee de france,
5318801,129529138,Musée de l'Ardoise et de la Géologie,,Chemin de la Malvalière,53800,Renazé,France,fr,open,47.79468745,-1.0412421144256487,,,,2018,payant:2012;gratuit:0;label-date:01/02/2003,label:musee de france,
7218199,65554014,Musée Vert Véron-de-Forbonnais,204,Avenue Jean Jaurès,72100,Le Mans,France,fr,open,47.98672035,0.20791745340231066,,,,2018,payant:16148;gratuit:10765;label-date:01/02/2003,label:musee de france,
7218101,31113389,Musée de Tessé,2,Avenue de Paderborn,72000,Le Mans,France,fr,open,48.01029025,0.20354701794554617,,,,2018,payant:8335;gratuit:13258;label-date:06/01/2002,label:musee de france,
7218102,2088806259,Musée de la Reine Bérengère,7,Rue de la Reine Bérengère,72000,Le Mans,France,fr,open,48.0089768,0.1976955,,,,2018,payant:2423;gratuit:8872;label-date:06/01/2002,label:musee de france,
8508701,620726971,Centre Minier de Faymoreau,,Rue de la Cour,85240,Faymoreau,France,fr,open,46.55511285,-0.6311954483215672,,,,2018,payant:9945;gratuit:2728;label-date:01/02/2003,label:musee de france,
8512901,113036200,Historial de la Vendée,,Allée Paul Bazin,85170,Les Lucs-sur-Boulogne,France,fr,open,46.845717,-1.4812348862413316,,,,2018,payant:22612;gratuit:36378;label-date:01/02/2003,label:musee de france,
8515401,,Musée Clémenceau et de Lattre de Tassigny,,,,MOUILLERON-EN-PAREDS,France,fr,open,,,,,,2018,payant:4372;gratuit:4969;label-date:06/01/2002,label:musee de france,
8522601,,Musée La Bourrine du Bois-Juquaud,,,,SAINT-HILAIRE-DE-RIEZ,France,fr,open,,,,,,2018,payant:8960;gratuit:2736;label-date:28/07/2004,label:musee de france,
8528401,,Musée Milcendeau Jean-Yole,,,,SOULLANS,France,fr,open,,,,,,2018,payant:1909;gratuit:898;label-date:12/12/2002,label:musee de france,
0407001,570290612,Musée Gassendi,64,Boulevard Gassendi,04000,Digne-les-Bains,France,fr,open,44.09366125,6.238406603731345,,,,2018,payant:3335;gratuit:12724;label-date:01/02/2003,label:musee de france,
0411101,5921065703,Musée de Salagon,,D 13,04300,Mane,France,fr,open,43.9352027,5.7592489,,,,2018,payant:26221;gratuit:6187;label-date:01/02/2003,label:musee de france,
0601802,,Musée d'Histoire Locale,,,,BIOT,France,fr,open,,,,,,2018,payant:4056;gratuit:0;label-date:01/02/2003,label:musee de france,
0608805,,Musée Archéologique - Site de  Cimiez,,,,NICE,France,fr,open,,,,,,2018,payant:22055;gratuit:16351;label-date:01/02/2003,label:musee de france,
1300101,34505703,Musée du Pavillon de Vendôme,,Rue Cardinale,13626,Aix-en-Provence,France,fr,open,43.5254678,5.4526102,,,,2018,payant:6742;gratuit:14364;label-date:01/02/2003,label:musee de france,
1300107,86887992,Muséum d'Histoire Naturelle,166,Avenue Jean Monnet,13090,Aix-en-Provence,France,fr,open,43.5333952,5.4236948895737775,,,,2018,payant:2107;gratuit:15830;label-date:06/01/2002,label:musee de france,
1305506,76469,Cabinet des Monnaies et Médailles de Marseille,,,13000,Marseille,France,fr,closed,43.2961743,5.3699525,,,,2018,payant:0;gratuit:0;label-date:01/02/2003,label:musee de france,
1305505,2499522058,Musée d'Histoire de Marseille,,Square Belsunce,13001,Marseille,France,fr,open,43.2975573,5.3756864,,,,2018,payant:25790;gratuit:41839;label-date:01/02/2003,label:musee de france,
1305502,,Musée du Vieux Marseille,,,,MARSEILLE,France,fr,open,,,,,,2018,payant:0;gratuit:0;label-date:01/02/2003,unlabel:musee de france,
1320691,168685674,Musée d'Art Contemporain - Galeries Contemporaines,7,Promenade Robert Laffont,13002,Marseille,France,fr,open,43.29672875,5.361025473368164,,,,2018,payant:7920;gratuit:16428;label-date:01/02/2003,label:musee de france,
1305508,68976388,"Musée d'Arts Africains, Océaniens, Amérindiens",,Rue Édouard Stéphan,13004,Marseille,France,fr,open,43.304596450000005,5.394039596087057,,,,2018,payant:0;gratuit:0;label-date:01/02/2003,label:musee de france,
1305509,2365711963,Musée de la Mode,,Avenue Clot Bey,13008,Marseille,France,fr,open,43.2572605,5.3820342,,,,2018,payant:0;gratuit:0;label-date:01/02/2003,unlabel:musee de france,
8305001,,Musée des Beaux-Arts,,,,DRAGUIGNAN,France,fr,closed,,,,,,2018,payant:0;gratuit:0;label-date:01/02/2003,label:musee de france,
8313201,,Musée du Vêtement Provençal (Jean Aicard),,,,SOLLIES-VILLE,France,fr,open,,,,,,2018,payant:0;gratuit:6097;label-date:01/02/2003,label:musee de france,
8313704,842473302,Musée National de la Marine de Toulon,,Sortie de l'Arsenal,83800,Toulon,France,fr,open,43.12182215,5.928354983793765,,,,2018,payant:26463;gratuit:30346;label-date:06/01/2002,label:musee de france,
8400703,1490236424,Musée Lapidaire (Collection archéologique de la Fondation Calvet),,Cours du Musée Calvet,84000,Avignon,France,fr,closed,43.9469675,4.8036302,,,,2018,payant:0;gratuit:0;label-date:06/01/2002,label:musee de france,
8400704,1490236424,Musée Calvet (et musée Lapidaire),,Cours du Musée Calvet,84000,Avignon,France,fr,open,43.9469675,4.8036302,,,,2018,payant:0;gratuit:41175;label-date:06/01/2002,label:musee de france,
8400702,309712990,Musée du Petit Palais,,Rue Ferruce,84000,Avignon,France,fr,open,43.9527473,4.8063438,,,,2018,payant:2708;gratuit:32403;label-date:01/02/2003,label:musee de france,
8403103,1802571381,Musée Comtadin-Duplessis,,Rue du Collège,84200,Carpentras,France,fr,open,44.054376,5.046289,,,,2018,payant:0;gratuit:3764;label-date:01/02/2003,label:musee de france,
8404201,,Musée Marc Deydier,,,,CUCURON,France,fr,open,,,,,,2018,payant:0;gratuit:180;label-date:01/02/2003,label:musee de france,
8413902,,Musée Jean Garcin 39-45 : L'appel de la Liberté,,,,FONTAINE-DE-VAUCLUSE,France,fr,open,,,,,,2018,payant:7060;gratuit:3154;label-date:14/01/2011,label:musee de france,
8406801,,Musée Philippe de Girard,,,,LOUMARIN - CADENET,France,fr,closed,,,,,,2018,payant:0;gratuit:0;label-date:01/02/2003,label:musee de france,
8413801,1936611150,Musée Départemental du Cartonnage et de l'Imprimerie,,Avenue Maréchal Foch,84600,Valréas,France,fr,open,44.382611,4.987426,,,,2018,payant:2367;gratuit:1822;label-date:01/02/2003,label:musee de france,
0105301,,Musée du Brou,,,,BOURG-EN-BRESSE,France,fr,open,,,,,,2018,payant:62284;gratuit:35932;label-date:01/02/2003,label:musee de france,
0140701,3215575817,Musée du Bois,,Allée Serullaz,01420,Seyssel,France,fr,closed,45.9591932,5.8316942,,,,2018,payant:0;gratuit:0;label-date:01/02/2003,label:musee de france,
0311801,387245355,Musée Municipal de Gannat,,Esplanade Pierre-Roch-Jurien-de-la-Gravière,03800,Gannat,France,fr,open,46.10151045,3.1965522151680728,,,,2018,payant:609;gratuit:604;label-date:01/02/2003,label:musee de france,
0327501,38196164,Musée Municipal de Souvigny,,Rue de Vouzon,41600,Chaon,France,fr,open,47.609893150000005,2.165856899999999,,,,2018,payant:7063;gratuit:2528;label-date:01/02/2003,label:musee de france,
0700501,,MuséAL - Musée Archéologique d'Alba,,,,ALBA-LA-ROMAINE,France,fr,open,,,,,,2018,payant:11953;gratuit:2094;label-date:17/02/2014,label:musee de france,
0732401,2793855499,Musée du Rhône,,,07270,Lamastre,France,fr,open,44.9980175,4.6108622,,,,2018,payant:17378;gratuit:11134;label-date:01/02/2003,label:musee de france,
1501402,6580283562,Musée d'Art et d'Archéologie,,Rue des Carmes,15000,Aurillac,France,fr,open,44.9253069,2.4420708,,,,2018,payant:1291;gratuit:10947;label-date:01/02/2003,label:musee de france,
2636201,,Musée des Beaux-Arts,,,,VALENCE,France,fr,open,,,,,,2018,payant:18806;gratuit:20379;label-date:01/02/2003,label:musee de france,
2636401,,Musée du site Préhistorique,,,,VASSIEUX-EN-VERCORS,France,fr,open,,,,,,2018,payant:10883;gratuit:0;label-date:01/02/2003,label:musee de france,
4311701,,Musée des Arts et Traditions Populaires de Haute Loire,,,,LAVAUDIEU,France,fr,open,,,,,,2018,payant:6459;gratuit:75;label-date:01/02/2003,label:musee de france,
3801201,875500989,Musée Gallo-Romain,16,Kielenstraat,3700,Tongeren,België / Belgique / Belgien,be,open,50.7814543,5.465715540741746,,,,2018,payant:5114;gratuit:1433;label-date:01/02/2003,label:musee de france,
3808201,,Musée - Parc Archéologique du Lac de Paladru,,,,CHARAVINES,France,fr,open,,,,,,2018,payant:0;gratuit:460;label-date:01/02/2003,label:musee de france,
3826901,1654912102,Musée Matheysin,,Rue Colonel Escallon,38350,La Mure,France,fr,open,44.9046933,5.7845917,,,,2018,payant:919;gratuit:1230;label-date:01/02/2003,label:musee de france,
3856201,1249592087,Musée Départemental de la Révolution Française,,Parvis du Château,38220,Vizille,France,fr,open,45.0757435,5.7735647,,,,2018,payant:0;gratuit:69610;label-date:01/02/2003,label:musee de france,
3856301,,Musée Lucien Mainssieux,,,,VOIRON,France,fr,open,,,,,,2018,payant:0;gratuit:4768;label-date:28/07/2004,label:musee de france,
4205203,2959298116,Musée Hospitalier,,Rue Jean Morel,42190,Charlieu,France,fr,open,46.159575,4.1712806,,,,2018,payant:0;gratuit:0;label-date:01/02/2003,label:musee de france,
4209101,,Musée d'Histoire du  20ème Siècle - Résistance et Déportation,,,,ESTIVAREILLES,France,fr,open,,,,,,2018,payant:1963;gratuit:1634;label-date:01/02/2003,label:musee de france,
4209401,346317680,Musée d'Archéologie,,Rue Victor de Laprade,42110,Feurs,France,fr,open,45.7442509,4.2195524,,,,2018,payant:1979;gratuit:3464;label-date:01/02/2003,label:musee de france,
4214701,163997717,Musée d'Allard,,Avenue d'Allard,42600,Montbrison,France,fr,open,45.6082165,4.061633719569123,,,,2018,payant:2869;gratuit:6747;label-date:01/02/2003,label:musee de france,
4218701,,Musée des Beaux-Arts et d'Archéologie J. Dechelette,,,,ROANNE,France,fr,open,,,,,,2018,payant:6462;gratuit:6291;label-date:01/02/2003,label:musee de france,
4221803,,Musée Folklorique du Vieux Saint-Etienne,,,,SAINT-ETIENNE,France,fr,open,,,,,,2018,payant:0;gratuit:0;label-date:01/02/2003,unlabel:musee de france,
6330003,700609623,Musée Régional d'Auvergne,,Rue Delille,63200,Riom,France,fr,open,45.8949948,3.116100670697047,,,,2018,payant:0;gratuit:2276;label-date:01/02/2003,label:musee de france,
6347001,300341262,Musée Municipal Marcel Sahut,,Rue des Écoles,63530,Volvic,France,fr,closed,45.872425,3.038987176470588,,,,2018,payant:0;gratuit:0;label-date:01/02/2003,label:musee de france,
6912301,188157107,Musée Historique des Tissus,,Rue de la Charité,69002,Lyon,France,fr,open,45.7533945,4.831325634804587,,,,2018,payant:35711;gratuit:18335;label-date:01/02/2003,label:musee de france,
6938102,2502213077,Musée des Beaux-Arts,,Rue du Président Édouard Herriot,69001,Lyon,France,fr,open,45.766606,4.834343,,,,2018,payant:143458;gratuit:156772;label-date:06/01/2002,label:musee de france,
6938901,125076993,Musée des Sapeurs-Pompiers de Lyon,,Avenue de Lanessan,69009,Lyon,France,fr,open,45.791253499999996,4.798525641909759,,,,2018,payant:5439;gratuit:5241;label-date:10/05/2005,label:musee de france,
6938101,62277312,Musée d'Art Contemporain de Lyon,,Allée Achille Lignon,69006,Lyon,France,fr,open,45.7842186,4.852469746082954,,,,2018,payant:37451;gratuit:34861;label-date:01/02/2003,label:musee de france,
6924801,1714229898,Ecomusée du Haut Beaujolais,,Chemin des Pierres Plantées,69240,Marnand,France,fr,closed,46.0380747,4.315875,,,,2018,payant:0;gratuit:0;label-date:10/05/2005,label:musee de france,
7305401,5858569185,Musée du Costume,,Rue des Vergers,73700,Bourg-Saint-Maurice,France,fr,closed,45.6178322,6.7704898,,,,2018,payant:0;gratuit:0;label-date:01/02/2003,label:musee de france,
7306504,51263801,Muséum d'histoire naturelle,,Avenue de Lyon,73000,Chambéry,France,fr,open,45.564102399999996,5.916291852044658,,,,2018,payant:0;gratuit:3786;label-date:01/02/2003,label:musee de france,
2105401,365168495,Musée du Vin de Bourgogne,,Rue Paradis,21200,Beaune,France,fr,open,47.0235691,4.837196,,,,2018,payant:20487;gratuit:4597;label-date:01/02/2003,label:musee de france,
2123105,255935624,Muséum - Jardin des Sciences,,Avenue Albert 1er,21000,Dijon,France,fr,open,47.3218523,5.0289424,,,,2018,payant:14169;gratuit:105374;label-date:06/01/2002,label:musee de france,
2123102,1493118991,Musée Archéologique,,Place Saint-Bénigne,21000,Dijon,France,fr,open,47.3216174,5.0348411,,,,2018,payant:0;gratuit:38942;label-date:01/02/2003,label:musee de france,
2158401,1870447615,Musée Municipal François Pompon,,Place Docteur Roclore,21210,Saulieu,France,fr,open,47.2796264,4.2298054,,,,2018,payant:3308;gratuit:6420;label-date:01/02/2003,label:musee de france,
2505602,53757083,Musée du Temps,,Rue Victor Hugo,25000,Besançon,France,fr,open,47.2346134,6.029035561950042,,,,2018,payant:8081;gratuit:32326;label-date:01/02/2003,label:musee de france,
2538801,7372375792,Musée Beurnier-Rossel,,Square Beurnier,25200,Montbéliard,France,fr,open,47.5098603,6.79769,,,,2018,payant:456;gratuit:2009;label-date:01/02/2003,label:musee de france,
2538802,7372375792,Musée du Château des Ducs de Wurtemberg,,Square Beurnier,25200,Montbéliard,France,fr,open,47.5098603,6.79769,,,,2018,payant:4382;gratuit:9685;label-date:01/02/2003,label:musee de france,
2546201,34418085,Musée de Pontarlier,2,,25300,Pontarlier,France,fr,open,46.904336799999996,6.354752112674423,,,,2018,payant:731;gratuit:7244;label-date:01/02/2003,label:musee de france,
7012201,87526037,Musée Départemental Albert-et-Félicie Demard - ATP,,Place de la Mairie,70600,Champlitte,France,fr,open,47.61684495,5.514228248646819,,,,2018,payant:4962;gratuit:7205;label-date:01/02/2003,label:musee de france,
7024501,192995465,Ecomusée du Pays de la Cerise,,Le Petit Fahys,70220,Lure,France,fr,open,47.90680895,6.4023357809508346,,,,2018,payant:6182;gratuit:4150;label-date:01/02/2003,label:musee de france,
3901301,121753643,Musée Sarret de Grozon,,Grande Rue,39600,Arbois,France,fr,open,46.902592,5.7742849457831325,,,,2018,payant:1297;gratuit:1714;label-date:01/02/2003,label:musee de france,
3909701,847296482,Musée Municipal d'Archéologie,,Frazione Luboz,11018,Saint-Pierre,Italia,it,open,45.7102452,7.2269227,,,,2018,payant:399;gratuit:285;label-date:01/02/2003,label:musee de france,
5805901,,Musée Municipal,,,,LA CHARITE-SUR-LOIRE,France,fr,closed,,,,,,2018,payant:0;gratuit:0;label-date:01/02/2003,label:musee de france,
7101401,7419064532,Musée Verger Tarin,,Rue des Marbres,71400,Autun,France,fr,closed,46.9490737,4.3029239,,,,2018,payant:0;gratuit:0;label-date:01/02/2003,label:musee de france,
7107602,121572642,Musée Nicéphore Niepce,,Quai des Messageries,71100,Chalon-sur-Saône,France,fr,open,46.7802664,4.8554572593273075,,,,2018,payant:0;gratuit:26585;label-date:01/02/2003,label:musee de france,
7110601,7419064524,Musée René Davoine,32,Rue René Davoine,71120,Charolles,France,fr,open,46.4312242,4.2732669,,,,2018,payant:0;gratuit:100;label-date:01/02/2003,label:musee de france,
7152601,1153618944,Musée Départemental de Préhistoire de Solutré,,Chemin de la Roche,71960,Solutré-Pouilly,France,fr,open,46.2976296,4.718872,,,,2018,payant:14277;gratuit:10482;label-date:01/02/2003,label:musee de france,
9001001,34588114,Musée d'Art et d'Histoire,,Allée de l'Option Française,90000,Belfort,France,fr,open,47.63662965,6.864735068130328,,,,2018,payant:3227;gratuit:13151;label-date:01/02/2003,label:musee de france,
9004101,2647243377,Forge-Musée,,Rue de Rougemont,90170,Étueffont,France,fr,open,47.7224462,6.920875,,,,2018,payant:391;gratuit:716;label-date:01/02/2003,label:musee de france,
8936801,2598935771,Musée Colette,,Place du Château,89520,Saint-Sauveur-en-Puisaye,France,fr,open,47.6173071,3.1989776,,,,2018,payant:5777;gratuit:1306;label-date:01/02/2003,label:musee de france,
2205001,95903744,Musée du Château de Dinan,,Promenade des Petits Fossés,22100,Dinan,France,fr,closed,48.450287599999996,-2.0449255728476867,,,,2018,payant:0;gratuit:0;label-date:01/02/2003,label:musee de france,
2915502,2139061354,Musée des Phares et Balises,,Route du Phare,,Lampaul,France,fr,open,48.4594493,-5.1294058,,,,2018,payant:15883;gratuit:2521;label-date:01/02/2003,label:musee de france,
5601001,,Musée de la Carte Postale,,,,BAUD,France,fr,open,,,,,,2018,payant:1838;gratuit:996;label-date:30/05/2017,label:musee de france,
1803301,3639383770,Musée Estève,,Rue Édouard Branly,18000,Bourges,France,fr,open,47.0861911,2.396213,,,,2018,payant:0;gratuit:0;label-date:01/02/2003,label:musee de france,
2836301,7659392646,Musée Farcot,,Rue de la Porte d'Étampes,28700,Sainville,France,fr,open,48.4154704,1.8793028,,,,2018,payant:24;gratuit:54;label-date:01/02/2003,label:musee de france,
3600601,2416267792,Musée de la Chemiserie et de l'Elégance Masculine,,Rue Charles Brillaud,36200,Argenton-sur-Creuse,France,fr,open,46.5884724,1.5182182,,,,2018,payant:2919;gratuit:3889;label-date:01/02/2003,label:musee de france,
3620001,275239079,Musée Archéologique d'Argentomagus,,Impasse du Clos des Mersans,36200,Saint-Marcel,France,fr,open,46.600498,1.5163171900000003,,,,2018,payant:5930;gratuit:4409;label-date:01/02/2003,label:musee de france,
3700301,,Musée - Hôtel Morin,,,,AMBOISE,France,fr,open,,,,,,2018,payant:0;gratuit:8676;label-date:01/02/2003,label:musee de france,
3722601,2180497491,Musée Municipal,1,Rue de la Paix,37800,Maillé,France,fr,closed,47.0523157,0.5806916,,,,2018,payant:0;gratuit:0;label-date:01/02/2003,label:musee de france,
3726104,969140682,Musée des Vins de Touraine,16,Jardin du Musée des Vins de Touraine,37010,Tours,France,fr,closed,47.3958548,0.6869467,,,,2018,payant:0;gratuit:0;label-date:01/02/2003,label:musee de france,
4502801,7689503538,Musée Daniel Vannier,,Place Dunois,45190,Beaugency,France,fr,closed,47.7777641,1.6336664,,,,2018,payant:0;gratuit:0;label-date:01/02/2003,label:musee de france,
2A00403,66274796,Musée Palais Fesch,50-52,Rue Cardinal Fesch,20000,Ajaccio,France,fr,open,41.9218958,8.738913555286306,,,,2018,payant:27554;gratuit:20343;label-date:01/02/2003,label:musee de france,
2B09601,6234663071,Musée de la Corse,,Place du Poilu,20250,Corte,France,fr,open,42.3058166,9.1484352,,,,2018,payant:63250;gratuit:9726;label-date:01/02/2003,label:musee de france,
0831101,1879820958,Musée du Feutre,,Rue Du Colombier,08210,Mouzon,France,fr,open,49.6060032,5.0749863,,,,2018,payant:2853;gratuit:1156;label-date:01/02/2003,label:musee de france,
0836201,115500287,Musée du Rethelois et du Porcien,,Impasse du Musée,08270,Novion-Porcien,France,fr,open,49.6002819,4.415982189901115,,,,2018,payant:0;gratuit:299;label-date:01/02/2003,label:musee de france,
1003301,,Musée Municipal,,,,BAR-SUR-AUBE,France,fr,closed,,,,,,2018,payant:0;gratuit:0;label-date:01/02/2003,label:musee de france,
1038705,,Maison de l'Outil  et de la Pensée Ouvrière,,,,TROYES,France,fr,open,,,,,,2018,payant:17574;gratuit:2818;label-date:01/02/2003,label:musee de france,
1038704,,Musée des Beaux-Arts (Musée Pic Saint-Loup),,,,TROYES,France,fr,open,,,,,,2018,payant:5764;gratuit:20766;label-date:01/02/2003,label:musee de france,
6730001,58887086,Musée de la Chartreuse,,Rue des Étudiants,67120,Molsheim,France,fr,open,48.5428428,7.490422123361975,,,,2018,payant:5367;gratuit:1596;label-date:01/02/2003,label:musee de france,
6737201,158554855,Musée de l'Image Populaire de Pfaffenhoffen,,Rue du Docteur Albert Schweitzer,67350,Haguenau-Wissembourg,France,fr,open,48.84483,7.6115728636419755,,,,2018,payant:1172;gratuit:862;label-date:2002-09-07 00:00:00,label:musee de france,
6748208,239813123,Musée Alsacien,23,Quai Saint-Nicolas,67065,Strasbourg,France,fr,open,48.5791319,7.7506043,,,,2018,payant:38258;gratuit:27531;label-date:01/02/2003,label:musee de france,
6748213,486650189,Musée Tomi Ungerer,,Rue Joseph Massol,67073,Strasbourg,France,fr,open,48.58570885,7.755036989998281,,,,2018,payant:25000;gratuit:25000;label-date:18/04/2008,label:musee de france,
6751301,,Musée J.F. Oberlin,,,,WALDERSBACH,France,fr,open,,,,,,2018,payant:22322;gratuit:7801;label-date:01/02/2003,label:musee de france,
6755001,2176631839,Musée de la Bataille du 6 Août 1870,,Cour du Château,67360,Wœrth,France,fr,open,48.9388096,7.7472595,,,,2018,payant:1452;gratuit:940;label-date:01/02/2003,label:musee de france,
6806301,6211249261,Musée de la Porte de Thann,,Rue Haffner,68700,Cernay,France,fr,open,47.8099726,7.1731847,,,,2018,payant:40;gratuit:111;label-date:01/02/2003,label:musee de france,
6833401,218472174,Musée des Amis de Thann,,Rue du Parc,68470,Husseren-Wesserling,France,fr,open,47.885102,6.996263986308496,,,,2018,payant:466;gratuit:1360;label-date:01/02/2003,label:musee de france,
5144501,418187,Ecomusée de la Montagne de Reims,,,51480,Pourcy,France,fr,closed,49.1574346,3.9081058,,,,2018,payant:0;gratuit:0;label-date:01/02/2003,label:musee de france,
5145401,733881096,Musée des Beaux-Arts de Saint-Denis,,,51100,Reims,France,fr,open,49.252981500000004,4.030427080857688,,,,2018,payant:47031;gratuit:0;label-date:06/01/2002,label:musee de france,
5427401,99542401,Musée de l'Histoire du Fer,,Avenue Général de Gaulle,54140,Jarville-la-Malgrange,France,fr,open,48.666507499999994,6.208713471590913,,,,2018,payant:6125;gratuit:13634;label-date:01/02/2003,label:musee de france,
5763001,2351192125,Musée du Pays de Sarrebourg,,Rue de la Paix,57400,Sarrebourg,France,fr,open,48.7352213,7.05534,,,,2018,payant:8233;gratuit:8391;label-date:01/02/2003,label:musee de france,
8838302,2582715284,Musée Charles Friry,12,Rue du Général Humbert,88200,Remiremont,France,fr,open,48.0151071,6.5897788,,,,2018,payant:495;gratuit:1145;label-date:11/08/2002,label:musee de france,
8838301,5390940587,Musée Charles de Bruyères,,Rue Charles de Gaulle,88200,Remiremont,France,fr,open,48.0161212,6.593241,,,,2018,payant:445;gratuit:1399;label-date:11/08/2002,label:musee de france,
9711701,1965845057,Musée Précolombien Edgar Clerc,,Route de la Plante,97160,Le Moule,France,fr,open,16.3396546,-61.3771244,,,,2018,payant:0;gratuit:11030;label-date:01/02/2003,label:musee de france,
0236102,1418418104,Familistère de Guise,,Cité Familistère,02120,Guise,France,fr,open,49.9045566,3.6252747,,,,2018,payant:62312;gratuit:3584;label-date:01/02/2003,label:musee de france,
0240802,202812175,Musée d'Art et d'Archéologie,,Rue des Moulins,02250,Marle,France,fr,open,49.7417279,3.771423276198486,,,,2018,payant:1430;gratuit:4420;label-date:01/02/2003,label:musee de france,
0269102,,Musée des Beaux-Arts Antoine Lecuyer,,,,SAINT-QUENTIN,France,fr,open,,,,,,2018,payant:2597;gratuit:9789;label-date:01/02/2003,label:musee de france,
0273801,173604154,Musée de la Résistance et de la Déportation,,Rue Gouillard Marcel,02700,Tergnier,France,fr,open,49.6585145,3.3158500983088235,,,,2018,payant:3378;gratuit:700;label-date:01/02/2003,label:musee de france,
0281001,2306316571,Musée Alexandre Dumas,,Rue Démoustier,02600,Villers-Cotterêts,France,fr,open,49.2530103,3.0896156,,,,2018,payant:917;gratuit:994;label-date:01/02/2003,label:musee de france,
5913501,5918815893,Musée Départemental de Flandre,,Grand Place,59670,Cassel,France,fr,open,50.7996394,2.4862076,,,,2018,payant:28900;gratuit:15628;label-date:01/02/2003,label:musee de france,
5935004,7818582178,Musée de l'Hospice Comtesse,,Rue de la Monnaie,59021,Lille,France,fr,open,50.6411688,3.0632054,,,,2018,payant:21140;gratuit:34654;label-date:01/02/2003,label:musee de france,
5935003,41065833,Musée d'Histoire Naturelle et de Géologie,19,Rue de Bruxelles,59000,Lille,France,fr,open,50.6266587,3.06701952992126,,,,2018,payant:46156;gratuit:73915;label-date:01/02/2003,label:musee de france,
5935002,152835085,Palais des Beaux-Arts de Lille,,Place de la République,59000,Lille,France,fr,open,50.630458149999995,3.0628110944444478,,,,2018,payant:107831;gratuit:149995;label-date:06/01/2002,label:musee de france,
5959901,,MUba - Musée des Beaux-Arts Eugène Leroy de Tourcoing,,,,TOURCOING,France,fr,open,,,,,,2018,payant:31065;gratuit:12471;label-date:01/02/2003,label:musee de france,
6005701,556458814,MUDO - Musée de l'Oise,,Rue Saint-Pierre,60000,Beauvais,France,fr,open,49.4329907,2.0796036241134193,,,,2018,payant:0;gratuit:48609;label-date:01/02/2003,label:musee de france,
6210801,,Musée Communautaire Opale-Sud,,,,BERCK-SUR-MER,France,fr,open,,,,,,2018,payant:3491;gratuit:5661;label-date:05/04/2002,label:musee de france,
6216004,18822516,Muséum d'Histoire Naturelle,,Boulogne Sur Mer,C1187AAN,Buenos Aires,Argentina,ar,closed,-34.603178,-58.4063017,,,,2018,payant:0;gratuit:0;label-date:01/02/2003,label:musee de france,
6219302,1390705450,Cité Internationale de la Dentelle et de la Mode de Calais,,Quai du Commerce,62100,Calais,France,fr,open,50.9502199,1.85981,,,,2018,payant:38001;gratuit:17901;label-date:09/12/2014,label:musee de france,
6231801,2960682988,Musée Quentovic,8,Place du Général de Gaulle,62630,Étaples,France,fr,closed,50.5139724,1.6376703,,,,2018,payant:0;gratuit:0;label-date:01/02/2003,label:musee de france,
6258801,,Musée d'Art et d'Histoire Roger Rodière,,,,MONTREUIL-SUR-MER,France,fr,open,,,,,,2018,payant:13741;gratuit:11411;label-date:01/02/2003,label:musee de france,
6276501,166832494,Musée de l'Hôtel Sandelin,,Rue Carnot,62500,Saint-Omer,France,fr,open,50.7491635,2.2540849375,,,,2018,payant:6490;gratuit:8771;label-date:01/02/2003,label:musee de france,
8000101,638296084,Musée Boucher-de-Perthes,,Rue Gontier Patin,80100,Abbeville,France,fr,open,50.1071737,1.8333893,,,,2018,payant:1730;gratuit:8263;label-date:01/02/2003,label:musee de france,
8062002,193012404,Musée-Historial de la Grande Guerre,,Rue de la Résistance,80200,Péronne,France,fr,open,49.929138,2.9306000138110875,,,,2018,payant:118114;gratuit:13347;label-date:01/02/2003,label:musee de france,
9109701,48359053,Musée Dunoyer de Segonzac,,Rue de la Glacière,91800,Brunoy,France,fr,open,48.7003494,2.5007316063279736,,,,2018,payant:0;gratuit:231;label-date:01/02/2003,label:musee de france,
9202301,29036,Fondation Arp,,,92140,Clamart,France,fr,open,48.800368,2.2630292,,,,2018,payant:1821;gratuit:1185;label-date:16/12/2003,label:musee de france,
9202501,79575406,Musée Municipal d'Art et d'Histoire,,Place du Général Leclerc,92700,Colombes,France,fr,open,48.9234139,2.2520804122623574,,,,2018,payant:0;gratuit:6428;label-date:01/02/2003,label:musee de france,
9204801,137829073,Musée d'Art et d'Histoire,11,Rue des Pierres,92190,Meudon,France,fr,open,48.806285,2.2350911702464784,,,,2018,payant:3381;gratuit:10795;label-date:01/02/2003,label:musee de france,
7511502,1212876,Musée Bourdelle,16,Rue Antoine Bourdelle,75015,Paris,France,fr,open,48.843215,2.318663236817872,,,,2018,payant:18500;gratuit:39322;label-date:08/07/2004,label:musee de france,
7511617,1191057,Palais Galliera - Musée de la Mode de la ville de Paris,10,Avenue Pierre 1er de Serbie,75116,Paris,France,fr,open,48.8657028,2.2965064253978102,,,,2018,payant:59211;gratuit:30583;label-date:08/07/2004,label:musee de france,
7510801,,Musée Nissim de Camondo (MAD),,,,PARIS,France,fr,open,,,,,,2018,payant:32832;gratuit:15348;label-date:06/01/2002,label:musee de france,
7728401,112061664,Musée Bossuet,5,Place Charles De Gaulle,77100,Meaux,France,fr,open,48.960741,2.8784914364406817,,,,2018,payant:3526;gratuit:8634;label-date:01/02/2003,label:musee de france,
7728802,112363959,Musée d'Art et d'Histoire de Melun,1-3,Rue Émile Leclerc,77000,Melun,France,fr,open,48.54554555,2.6529119346368715,,,,2018,payant:2760;gratuit:9930;label-date:01/02/2003,label:musee de france,
7733301,2177750355,Musée Départemental de Préhistoire d'Île de France,,Cours du Château,77140,Nemours,France,fr,open,48.2655865,2.6970907,,,,2018,payant:1409;gratuit:8143;label-date:01/02/2003,label:musee de france,
9304601,145134117,Musée Municipal,,Rue du Docteur Roux,93190,Livry-Gargan,France,fr,open,48.934633649999995,2.5517116365355736,,,,2018,payant:0;gratuit:0;label-date:01/02/2003,unlabel:musee de france,
9535101,,ARCHEA - Archéologie en Pays de France,,,,LOUVRES,France,fr,open,,,,,,2018,payant:7293;gratuit:6082;label-date:01/02/2003,label:musee de france,
9550001,43971811,Musée Tavet Delacour,,Rue Lemercier,95300,Pontoise,France,fr,open,49.051103499999996,2.0996586365287904,,,,2018,payant:1025;gratuit:3403;label-date:01/02/2003,label:musee de france,
9550002,41467265,Musée Camille Pissarro,17,Rue du Château,95300,Pontoise,France,fr,open,49.0482376,2.0999530104316726,,,,2018,payant:4203;gratuit:1917;label-date:01/02/2003,label:musee de france,
7849801,,Musée du Jouet Pierre Pinel,,,,POISSY,France,fr,open,,,,,,2018,payant:460;gratuit:4138;label-date:01/02/2003,label:musee de france,
7851702,130921984,Musée Rambolitrain,,Avenue du Maréchal Foch,78120,Rambouillet,France,fr,open,48.6460441,1.8241725980003551,,,,2018,payant:14566;gratuit:2414;label-date:01/02/2003,label:musee de france,
7864602,,Etablissement Public du Musée et du Domaine National de Versailles,,,,VERSAILLES,France,fr,open,,,,,,2018,payant:6197043;gratuit:1935475;label-date:06/01/2002,label:musee de france,
9741301,,Muséum Agricole et Industriel Stella Matutina,,,,PITON-SAINT-LEU,France,fr,open,,,,,,2018,payant:85897;gratuit:7058;label-date:01/02/2003,label:musee de france,
9760801,,MuMa - Musée de Mayotte,,,,DZAOUDZI,France,fr,open,,,,,,2018,payant:0;gratuit:6157;label-date:23/12/2018,label:musee de france,
1411805,98093576,Musée de la Société des Antiquaires,,北参道,630-8213,奈良市,日本,jp,closed,34.68353285,135.832533375129,,,,2018,payant:0;gratuit:0;label-date:01/02/2003,label:musee de france,
1411802,155642549,Musée de Normandie,,Allée du Chat qui Veille,14000,Caen,France,fr,open,49.18563295,-0.3632591181335702,,,,2018,payant:18726;gratuit:31886;label-date:06/01/2002,label:musee de france,
1469201,,Musée de la Bataille de Tilly-Sur-Seulles 1944,,,,TILLY-SUR-SEULLES,France,fr,open,,,,,,2018,payant:766;gratuit:703;label-date:01/02/2003,label:musee de france,
1476201,273869916,Musée Municipal,,Place Sainte-Anne,14500,Vire,France,fr,closed,48.83614215,-0.8884562231308408,,,,2018,payant:0;gratuit:0;label-date:01/02/2003,label:musee de france,
2722901,,Musée de l'Ancien Evêché,,,,EVREUX,France,fr,open,,,,,,2018,payant:0;gratuit:21358;label-date:01/02/2003,label:musee de france,
2737501,,Musée Municipal,,,,LOUVIERS Cedex,France,fr,open,,,,,,2018,payant:0;gratuit:6929;label-date:01/02/2003,label:musee de france,
5002501,135528003,Musée Municipal d'Avranches,,Rue du Docteur Ollivier,50400,Granville,France,fr,open,48.8429745,-1.592543481481478,,,,2018,payant:1584;gratuit:2280;label-date:01/02/2003,label:musee de france,
5008201,,Musée du Vieux Château,,,,BRICQUEBEC-EN-COTENTIN,France,fr,closed,,,,,,2018,payant:0;gratuit:0;label-date:01/02/2003,label:musee de france,
5021802,1384094524,Musée d'Art et d'Histoire de Granville,,Rue Cambernon,50400,Granville,France,fr,open,48.8370798,-1.6026316,,,,2018,payant:0;gratuit:36;label-date:01/02/2003,label:musee de france,
5052301,2390534012,Ferme-Musée du Cotentin,,Chemin de Beauvais,50480,Sainte-Mère-Église,France,fr,open,49.4148092,-1.3183281,,,,2018,payant:7929;gratuit:1702;label-date:17/02/2014,label:musee de france,
5056201,39578602,Musée Maritime de l'Ile de Tatihou,,Le Run,50550,,France,fr,open,49.59021435,-1.2467517830058594,,,,2018,payant:68351;gratuit:3213;label-date:01/02/2003,label:musee de france,
5061501,,Musée Régional du Cidre et du Calvados,,,,VALOGNES,France,fr,open,,,,,,2018,payant:1507;gratuit:927;label-date:01/02/2003,label:musee de france,
5063901,218157369,Musée de la Poeslerie,,Cour du Foyer,50800,Villedieu-les-Poêles,France,fr,open,48.84073,-1.221661075,,,,2018,payant:3772;gratuit:1056;label-date:01/02/2003,label:musee de france,
7647401,121934820,Musée Industriel de la Corderie Vallois,185,Route de Dieppe,76960,Notre-Dame-de-Bondeville,France,fr,open,49.4951715,1.0479190217391308,,,,2018,payant:0;gratuit:11329;label-date:01/02/2003,label:musee de france,
7654002,64717877,MUNAE - Musée National de l'Education,6,Rue de Bihorel,76000,Rouen,France,fr,open,49.44841715,1.102956596817131,,,,2018,payant:9941;gratuit:11780;label-date:06/01/2002,label:musee de france,
7654007,64180707,Muséum d'Histoire Naturelle,198,Rue Beauvoisine,76000,Rouen,France,fr,open,49.44710085,1.0990036003098362,,,,2018,payant:3052;gratuit:44666;label-date:01/02/2003,label:musee de france,
1601501,,Musée des Beaux-Arts,,,,ANGOULEME,France,fr,open,,,,,,2018,payant:11111;gratuit:30801;label-date:01/02/2003,label:musee de france,
1730006,119814128,Muséum d'Histoire Naturelle,,Rue Albert 1er,17000,La Rochelle,France,fr,open,46.164811,-1.1511445969910366,,,,2018,payant:17704;gratuit:45353;label-date:06/01/2002,label:musee de france,
1729904,90808269,Musée National de la Marine,,Rue Amiral Meyer,17300,Rochefort,France,fr,open,45.9423,-0.9649527857142841,,,,2018,payant:18859;gratuit:11293;label-date:06/01/2002,label:musee de france,
1738501,1846520665,Musée de l'Ile d'Oléron,,Rue Aliénor d'Aquitaine,17310,Saint-Pierre-d'Oléron,France,fr,open,45.9428107,-1.3066515,,,,2018,payant:8118;gratuit:3441;label-date:01/02/2003,label:musee de france,
2403701,369318223,Musée du Tabac,,Place du Feu,24100,Bergerac,France,fr,open,44.84971,0.4837602,,,,2018,payant:3681;gratuit:1455;label-date:01/02/2003,label:musee de france,
2417204,1708799591,Musée National de la Préhistoire,,Rue du Musée,24620,Sarlat-la-Canéda,France,fr,open,44.9362525,1.0135749,,,,2018,payant:36445;gratuit:34867;label-date:06/01/2002,label:musee de france,
2432202,75346425,Musée Militaire - Souvenir du Périgord,,Rue 26e Régiment d'Infanterie,24000,Périgueux,France,fr,open,45.179478599999996,0.7132096320585205,,,,2018,payant:2218;gratuit:1000;label-date:01/02/2003,label:musee de france,
3306309,79979931,Centre National Jean Moulin,,Place Jean Moulin,33000,Bordeaux,France,fr,closed,44.83869155,-0.5776727923278906,,,,2018,payant:0;gratuit:0;label-date:01/02/2003,label:musee de france,
3306303,79979299,Musée des Beaux-Arts,,Rue Dufau,33000,Bordeaux,France,fr,open,44.837340600000005,-0.5806817120198913,,,,2018,payant:36080;gratuit:50891;label-date:06/01/2002,label:musee de france,
6410201,631661850,Musée Basque et de l'Histoire de Bayonne,37,Quai des Corsaires,64100,Bayonne,France,fr,open,43.4910854,-1.473799,,,,2018,payant:20874;gratuit:43592;label-date:01/02/2003,label:musee de france,
6416001,209763123,Musée Edmond Rostand,,Avenue du Docteur Alexandre Camino,64250,Larressore,France,fr,open,43.36763065,-1.422666450245681,,,,2018,payant:76903;gratuit:9698;label-date:01/02/2003,label:musee de france,
8606602,2541482016,Musée Municipal de l'Hôtel de Sully,,Rue du Vieux Palais,86100,Châtellerault,France,fr,closed,46.8158293,0.5419934,,,,2018,payant:0;gratuit:0;label-date:01/02/2003,label:musee de france,
8619403,40140547,Musée de l'hypogée des Dunes,,Rue Paschal le Coq,86000,Poitiers,France,fr,open,46.57912245,0.34775441471496493,,,,2018,payant:0;gratuit:481;label-date:06/01/2002,label:musee de france,
0918101,3127357651,Musée de la Préhistoire,,Place de l'Église,09290,Le Mas-d'Azil,France,fr,open,43.0800307,1.3600366,,,,2018,payant:32526;gratuit:2914;label-date:01/02/2003,label:musee de france,
1104901,1722803126,Eburomagus Musée Archéologique,2,Avenue du Razès,11150,Bram,France,fr,open,43.2438113,2.1161341,,,,2018,payant:815;gratuit:2007;label-date:23/02/2012,label:musee de france,
1120601,799714487,Musée Petiet,,Avenue Fabre d'Églantine,11300,Limoux,France,fr,open,43.0534043,2.2144622,,,,2018,payant:709;gratuit:2717;label-date:01/02/2003,label:musee de france,
1126202,92058703,Musée Archéologique,,Rue des Jacobins,11100,Narbonne,France,fr,open,43.1809595,3.004147255208337,,,,2018,payant:0;gratuit:0;label-date:12/06/2002,unlabel:musee de france,
1137901,,Musée des Corbières,,,,SIGEAN,France,fr,open,,,,,,2018,payant:180;gratuit:959;label-date:01/02/2003,label:musee de france,
1208901,4163135490,Musée Régional de Géologie Pierre Vetter,,Rue Emma Calvé,12300,Saint-Michel,France,fr,closed,44.5542939,2.2583993,,,,2018,payant:0;gratuit:0;label-date:01/02/2003,label:musee de france,
1209601,152864630,"Musée des Mœurs et Coutumes, Musée du Rouergue",,Place Pierre Frontin,12500,Espalion,France,fr,open,44.5211405,2.7606325085458474,,,,2018,payant:639;gratuit:386;label-date:01/02/2003,label:musee de france,
1220201,124625026,Musée Fenaille,14,Place Eugène Raynaldy,12000,Rodez,France,fr,open,44.3490972,2.5765922842984468,,,,2018,payant:22436;gratuit:8462;label-date:01/02/2003,label:musee de france,
3002801,3778245095,Musée Albert André,,Place Auguste Mallet,30200,Bagnols-sur-Cèze,France,fr,open,44.1619056,4.6203171,,,,2018,payant:44;gratuit:4530;label-date:01/02/2003,label:musee de france,
3156501,,Le Musée - Arts et Figures des Pyrénées Centrales,,,,SAINT-GAUDENS,France,fr,open,,,,,,2018,payant:211;gratuit:887;label-date:01/02/2003,label:musee de france,
3155509,134123637,Muséum d'Histoire Naturelle,,Allée des Justes des Nations,31400,Toulouse,France,fr,open,43.59334975,1.4495300359978467,,,,2018,payant:168455;gratuit:137341;label-date:06/01/2002,label:musee de france,
3155506,247081244,Musée du Vieux Toulouse,,Rue du May,31000,Toulouse,France,fr,open,43.6023148,1.4431296,,,,2018,payant:6068;gratuit:1004;label-date:01/02/2003,label:musee de france,
3155503,833971998,Musée Paul Dupuy,,Rue de la Pleau,31000,Toulouse,France,fr,open,43.5969961,1.4469176608344112,,,,2018,payant:3842;gratuit:15216;label-date:01/02/2003,label:musee de france,
3403901,277812836,Musée de l'Etang de Thau,,Chemin du Belvédère,34140,Bouzigues,France,fr,open,43.446872,3.6617685,,,,2018,payant:3110;gratuit:8860;label-date:01/02/2003,label:musee de france,
3411901,425241849,Musée de la Cloche et de la Sonnaille,,Avenue des Treize Vents,34600,Hérépian,France,fr,open,43.59457755,3.112557793850808,,,,2018,payant:2271;gratuit:1106;label-date:01/02/2003,label:musee de france,
3417202,1165324328,Musée Languedocien,,Rue Jacques Coeur,34062,Montpellier,France,fr,closed,43.6095397,3.8791384,,,,2018,payant:0;gratuit:0;label-date:01/02/2003,label:musee de france,
4633001,2271992489,Musée Municipal,,Impasse Lucterius,46110,Vayrac,France,fr,open,44.952451,1.703678,,,,2018,payant:102;gratuit:0;label-date:01/02/2003,label:musee de france,
4811601,614381321,Ecomusée du Mont Lozère,,D 20,48220,Florac,France,fr,open,44.3655806,3.7463973,,,,2018,payant:0;gratuit:850;label-date:01/02/2003,label:musee de france,
6605301,,Musée d'Art Moderne - Fonds Peskè,,,,COLLIOURE,France,fr,open,,,,,,2018,payant:8935;gratuit:2325;label-date:01/02/2003,label:musee de france,
8109101,379420307,Musée du Protestantisme de la Réforme à la Laïcité,,D 53,81260,Castres,France,fr,open,43.661023,2.449145648571428,,,,2018,payant:2754;gratuit:895;label-date:01/02/2003,label:musee de france,
8109902,60929966,Muséum d'histoire naturelle Philadelphe Thomas,,Rue Philadelphe Thomas,81600,Gaillac,France,fr,open,43.8993239,1.8943379,,,,2018,payant:1098;gratuit:2314;label-date:01/02/2003,label:musee de france,
8114001,,Musée du Pays Vaurais,,,,LAVAUR,France,fr,open,,,,,,2018,payant:1734;gratuit:4936;label-date:01/02/2003,label:musee de france,
8122001,,Musée du Pays Rabastinois,,,,RABASTENS,France,fr,open,,,,,,2018,payant:399;gratuit:4451;label-date:01/02/2003,label:musee de france,
4410904,6808838,Musée du Château des Ducs de Bretagne,4,Place Marc Elder,44000,Nantes,France,fr,open,47.21609735,-1.5499958913608,,,,2018,payant:148735;gratuit:184005;label-date:01/02/2003,label:musee de france,
4902101,,Musée Joseph Denais,,,,BEAUFORT-EN-VALLEE,France,fr,open,,,,,,2018,payant:6008;gratuit:2827;label-date:06/10/2002,label:musee de france,
4909901,1782756206,Musée d'Art et d'Histoire,,Avenue de l’Abreuvoir,49300,Cholet,France,fr,open,47.0583944,-0.8807128,,,,2018,payant:1777;gratuit:14300;label-date:06/04/2002,label:musee de france,
4909904,1301987143,Musée du Textile,,Avenue Marcel Cauchy,49300,Cholet,France,fr,open,47.0681455,-0.8982604,,,,2018,payant:5406;gratuit:8373;label-date:06/04/2002,label:musee de france,
4935301,125991770,Musée de l'Ardoise,32,Chemin de la Maraichère,49800,Trélazé,France,fr,open,47.446912,-0.48919949107143107,,,,2018,payant:8710;gratuit:0;label-date:01/02/2003,label:musee de france,
5300301,277287315,Musée des Tisserands Mayennais,,Place Billard de Veaux,53300,Ambrières-les-Vallées,France,fr,open,48.403429,-0.6308390478723407,,,,2018,payant:136;gratuit:171;label-date:01/02/2003,label:musee de france,
5307701,1305841940,Musée Communal Robert Tatin,,L'Allée des Géants,53230,Cossé-le-Vivien,France,fr,open,47.9337461,-0.8955996,,,,2018,payant:22285;gratuit:5568;label-date:28/06/2002,label:musee de france,
5309601,,Musée Municipal,,,,ERNEE,France,fr,closed,,,,,,2018,payant:0;gratuit:0;label-date:01/02/2003,label:musee de france,
5312201,8292313,Musée Archéologique Départemental de Jublains,,Rue de la Libération,53160,Jublains,France,fr,open,48.2545411,-0.4975843742117564,,,,2018,payant:11267;gratuit:10177;label-date:18/07/2002,label:musee de france,
7217901,363960591,Musée Espace Faïence de Malicorne,,Rue Victor Hugo,72270,Malicorne-sur-Sarthe,France,fr,open,47.813164,-0.08338928389830455,,,,2018,payant:5437;gratuit:5523;label-date:23/10/2009,label:musee de france,
8509201,252173072,Musée de Fontenay-le-Comte,,Rampe du Musée,85240,Faymoreau,France,fr,open,46.5560261,-0.6289655,,,,2018,payant:1081;gratuit:2733;label-date:14/12/2002,label:musee de france,
8504601,3790252198,Musée ornithologique Charles-Payraudeau,,Rue des Noyers,85310,La Chaize-le-Vicomte,France,fr,open,46.6720342,-1.2970252,,,,2018,payant:215;gratuit:294;label-date:01/02/2003,label:musee de france,
0420901,,Musée Gallo-Romain Sisteron,,,,SISTERON,France,fr,open,,,,,,2018,payant:0;gratuit:11989;label-date:01/02/2003,label:musee de france,
0600401,68051130,Musée Picasso,,Place Mariejol,06600,Antibes,France,fr,open,43.58070895,7.128259617884984,,,,2018,payant:71844;gratuit:42985;label-date:01/02/2003,label:musee de france,
0600402,68051130,Musée d'Histoire et d'Archéologie,,Place Mariejol,06600,Antibes,France,fr,open,43.58070895,7.128259617884984,,,,2018,payant:5729;gratuit:3359;label-date:01/02/2003,label:musee de france,
0602902,2824215844,Musée de la Mer,,Allée des Eucalyptus,06407,Cannes,France,fr,open,43.523904,7.0453202,,,,2018,payant:41397;gratuit:33508;label-date:01/02/2003,label:musee de france,
0608304,1837011704,Musée Jean Cocteau Collection Séverin Wunderman,,Quai de Monléon,06500,Menton,France,fr,open,43.7747355,7.5057931,,,,2018,payant:13752;gratuit:25787;label-date:01/02/2003,label:musee de france,
0608811,140067117,Musée National Marc Chagall,36,Avenue du Docteur Ménard,06000,Nice,France,fr,open,43.709136,7.269527046511632,,,,2018,payant:108132;gratuit:64757;label-date:06/01/2002,label:musee de france,
0609801,149921556,Ecomusée du Pays de la Roudoule,,Placette de l'Europe,06260,Puget-Rostang,France,fr,open,43.9741388,6.918903152040816,,,,2018,payant:1513;gratuit:4306;label-date:01/02/2003,label:musee de france,
1300105,88614075,Musée- Atelier de Paul Cézanne,,Rue des Bremondis,13626,Aix-en-Provence,France,fr,open,43.530754849999994,5.447239307551794,,,,2018,payant:72881;gratuit:6239;label-date:01/02/2003,label:musee de france,
1300404,,Muséon Arlaten,,,,ARLES,France,fr,open,,,,,,2018,payant:0;gratuit:1893;label-date:01/02/2003,label:musee de france,
1300405,5944281,Musée Départemental de l'Arles Antique,,Avenue Jean Monnet,13200,Arles,France,fr,open,43.6727255,4.616514831816822,,,,2018,payant:29828;gratuit:94462;label-date:01/02/2003,label:musee de france,
1320601,69139913,Musée Cantini,,Rue Grignan,13006,Marseille,France,fr,open,43.292207399999995,5.378208413712626,,,,2018,payant:29431;gratuit:32996;label-date:01/02/2003,label:musee de france,
1305601,99114044,Musée Ziem,,Boulevard du 14 Juillet,13500,Martigues,France,fr,open,43.408675849999995,5.054218764027318,,,,2018,payant:0;gratuit:14069;label-date:01/02/2003,label:musee de france,
1310002,6335508017,Musée Estrine - Présence Van Gogh,8,Rue Lucien Estrine,13210,Saint-Rémy-de-Provence,France,fr,open,43.7887777,4.8322436,,,,2018,payant:12339;gratuit:4156;label-date:15/03/2007,label:musee de france,
1310302,,Musée de Salon et de la Crau,,,,SALON-DE-PROVENCE,France,fr,open,,,,,,2018,payant:0;gratuit:8387;label-date:01/02/2003,label:musee de france,
8311801,130473371,Musée Archéologique,,Rue de la Vieille Église,83700,Saint-Raphaël,France,fr,open,43.42600365,6.769243065966667,,,,2018,payant:0;gratuit:21000;label-date:01/02/2003,label:musee de france,
8313703,2196651226,Musée d'Art de Toulon - M.A.T.,113,Boulevard Général Leclerc,83000,Toulon,France,fr,open,43.1263031,5.9272107,,,,2018,payant:0;gratuit:16901;label-date:01/02/2003,label:musee de france,
8403102,90931574,Musée Lapidaire et Archéologie,,Rue Eysseric et Pascal,84200,Carpentras,France,fr,closed,44.05426295,5.045272504588607,,,,2018,payant:0;gratuit:0;label-date:01/02/2003,label:musee de france,
8403105,1802571381,Musée Sobirats,,Rue du Collège,84200,Carpentras,France,fr,closed,44.054376,5.046289,,,,2018,payant:0;gratuit:0;label-date:01/02/2003,label:musee de france,
8413901,694831616,Musée-Bibliothèque François Pétrarque,,Chemin de la Fontaine de Vaucluse,84800,Fontaine-de-Vaucluse,France,fr,open,43.9220356,5.1302755,,,,2018,payant:1566;gratuit:1800;label-date:01/02/2003,label:musee de france,
8407201,,Musée Municipal Camille Pautet,,,,MAZAN,France,fr,closed,,,,,,2018,payant:0;gratuit:0;label-date:01/02/2003,label:musee de france,
8408701,219528069,Musée Municipal,,Rue Madeleine Roch,84100,Orange,France,fr,open,44.136139400000005,4.807732098364788,,,,2018,payant:50679;gratuit:998;label-date:01/02/2003,label:musee de france,
0121801,210386723,Musée du Bugey-Valmorey,,Impasse de la Forge,01260,Belley,France,fr,open,45.9296855,5.7266927293314165,,,,2018,payant:2880;gratuit:2520;label-date:01/02/2003,label:musee de france,
0126901,138473284,Musée de la Résistance et de la Déportation de l'Ain,3,Montée de l'Abbaye,01130,Nantua,France,fr,open,46.1525,5.60827747048556,,,,2018,payant:7851;gratuit:5096;label-date:01/02/2003,label:musee de france,
0113701,700244363,Musée Départemental du Revermont,,Rue Principale,01370,Bourg-en-Bresse,France,fr,open,46.30032775,5.389046761156977,,,,2018,payant:2961;gratuit:8545;label-date:01/02/2003,label:musee de france,
0144301,,Musée de la Dombes,,,,VILLARS DE LA DOMBES,France,fr,closed,,,,,,2018,payant:0;gratuit:0;label-date:01/02/2003,label:musee de france,
0318501,2511432939,Musée des Musiques Populaires - MuPop,,Rue Notre-Dame,03100,Montluçon,France,fr,open,46.3408843,2.6055312,,,,2018,payant:17011;gratuit:5663;label-date:01/02/2003,label:musee de france,
0319501,,Musée Rieckotter,,,,NERIS-LES-BAINS,France,fr,open,,,,,,2018,payant:409;gratuit:618;label-date:01/02/2003,label:musee de france,
0331002,90587179,Musée des Arts D'Afrique et D'Asie,16,Avenue Thermale,03200,Vichy,France,fr,open,46.128228,3.419954892380618,,,,2018,payant:3397;gratuit:1555;label-date:01/02/2003,label:musee de france,
0733401,5766476644,Musée des Vans,,Rue du Couvent,07140,Les Vans,France,fr,open,44.4044775,4.1345103,,,,2018,payant:766;gratuit:1328;label-date:01/02/2003,label:musee de france,
0718601,8313178925,Musée de la terre ardéchoise,,Voie Douce de la Payre,07000,Privas,France,fr,closed,44.7196687,4.6011043,,,,2018,payant:0;gratuit:0;label-date:01/02/2003,label:musee de france,
1501401,2085157238,Musée des Sciences,,Rue des Fourmillères,15120,Lacapelle-del-Fraisse,France,fr,open,44.7599649,2.4617902,,,,2018,payant:3224;gratuit:6611;label-date:01/02/2003,label:musee de france,
1518701,982070993,Musée de la Haute Auvergne,,Place d'Armes,15100,Saint-Flour,France,fr,open,45.0330738,3.0948739,,,,2018,payant:2573;gratuit:5620;label-date:01/02/2003,label:musee de france,
2619801,3847795321,Musée du Château des Adhémars,,Place Saint-Martin,26200,Montélimar,France,fr,open,44.5622891,4.7528529,,,,2018,payant:11491;gratuit:11955;label-date:30/01/2003,label:musee de france,
2632401,75706507,Musée d'Archéologie Tricastine,,Passage Fanjoux,26130,Saint-Paul-Trois-Châteaux,France,fr,open,44.34948825,4.768113979626141,,,,2018,payant:2309;gratuit:6286;label-date:01/02/2003,label:musee de france,
4307001,4398955697,Musée de Paléontologie,,Rue du Château,43380,Chilhac,France,fr,open,45.1559183,3.4375593,,,,2018,payant:1630;gratuit:60;label-date:01/02/2003,label:musee de france,
7401001,4891589833,Musée-château d'Annecy,,Rampe du Château,74000,Annecy,France,fr,open,45.8976583,6.1260527,,,,2018,payant:73141;gratuit:67369;label-date:01/02/2003,label:musee de france,
7405601,97313427,Musée Alpin,,Rue de la Tournette,74400,Chamonix-Mont-Blanc,France,fr,open,45.924025099999994,6.871257449784508,,,,2018,payant:23920;gratuit:11781;label-date:01/02/2003,label:musee de france,
7415201,7049144505,Musée Léon Marès,,Allée du Château,74330,Lovagny,France,fr,open,45.8988203,6.0391237,,,,2018,payant:29538;gratuit:288;label-date:01/02/2003,label:musee de france,
3800501,171257717,Conservatoire - Musée des Industries Hydroélectriques,,Le Verney,38114,Vaujany,France,fr,open,45.1463919,6.049412773128473,,,,2018,payant:0;gratuit:7448;label-date:01/02/2003,label:musee de france,
3854402,135880564,Musée Lapidaire Saint-Pierre,,Rue Delorme,38200,Vienne,France,fr,open,45.522842999999995,4.871060720000006,,,,2018,payant:3650;gratuit:9429;label-date:01/02/2003,label:musee de france,
4205202,2959298116,Musée de la Soierie,,Rue Jean Morel,42190,Charlieu,France,fr,open,46.159575,4.1712806,,,,2018,payant:4949;gratuit:2286;label-date:01/02/2003,label:musee de france,
4205901,6050847032,Atelier - Musée du Chapeau,31,Rue Martouret,42140,Chazelles-sur-Lyon,France,fr,open,45.6386575,4.395141,,,,2018,payant:15716;gratuit:5611;label-date:01/02/2003,label:musee de france,
4214702,7419064520,Musée de la Diana,5,Rue Florimond Robertet,42600,Montbrison,France,fr,closed,45.6055914,4.0668891,,,,2018,payant:0;gratuit:0;label-date:01/02/2003,label:musee de france,
4221901,224220352,Château de la Bastie d'Urfé,,Route de la Batie D'urfe,42130,Saint-Étienne-le-Molard,France,fr,open,45.72759345,4.078354343331679,,,,2018,payant:7278;gratuit:20199;label-date:01/02/2003,label:musee de france,
4221801,244953708,Musée d'Art Moderne et Contemporain de Saint-Etienne Métropole,,A 72,42270,Saint-Priest-en-Jarez,France,fr,open,45.4694622,4.3742124,,,,2018,payant:29735;gratuit:30927;label-date:01/02/2003,label:musee de france,
6938201,6575800693,Musée des Hospices Civils de Lyon,,Rue du Port du Temple,69002,Lyon,France,fr,closed,45.7608407,4.8315116,,,,2018,payant:0;gratuit:0;label-date:01/02/2003,label:musee de france,
6938501,700244364,Musées Gadagne,,Rue de la Fronde,69005,Lyon,France,fr,open,45.7640445,4.827288742103092,,,,2018,payant:31545;gratuit:47317;label-date:01/02/2003,label:musee de france,
6938604,1851239924,Musée Guimet,,Rue Morellet,69006,Lyon,France,fr,open,45.774489,4.8484697,,,,2018,payant:0;gratuit:0;label-date:2003-02-01 00:00:00,label:musee de france,
6923501,131339006,Musée Archéologique,,D 502,69560,Saint-Romain-en-Gal,France,fr,open,45.5291012,4.870453852740197,,,,2018,payant:22722;gratuit:53684;label-date:01/02/2003,label:musee de france,
6926401,2649845820,Musée Paul Dini,,Rue Grenette,69400,Villefranche-sur-Saône,France,fr,open,45.9908656,4.7211731,,,,2018,payant:13983;gratuit:8446;label-date:01/02/2003,label:musee de france,
7300601,,Musée archéologique et minéralogique Pierre Borrione,,,,AIME-EN-TARENTAISE,France,fr,open,,,,,,2018,payant:220;gratuit:255;label-date:01/02/2003,label:musee de france,
7300801,79376440,Musée du docteur Faure,,Boulevard des Côtes,73100,Aix-les-Bains,France,fr,open,45.6925521,5.915906815022636,,,,2018,payant:6712;gratuit:6446;label-date:01/02/2003,label:musee de france,
7300802,79376440,Musée Archéologique,,Boulevard des Côtes,73100,Aix-les-Bains,France,fr,open,45.6925521,5.915906815022636,,,,2018,payant:200;gratuit:300;label-date:01/02/2003,label:musee de france,
7306502,55112807,Musée Savoisien,,Place Métropole,73000,Chambéry,France,fr,closed,45.56549205,5.922931048911965,,,,2018,payant:0;gratuit:0;label-date:06/01/2002,label:musee de france,
2103801,7419064530,Musée Bonaparte,,Place du Château,21130,Auxonne,France,fr,closed,47.1915827,5.3833549,,,,2018,payant:0;gratuit:0;label-date:01/02/2003,label:musee de france,
2105402,371712800,Musée des Beaux-Arts,,Rempart Madeleine,21200,Beaune,France,fr,open,47.0214963,4.8398035,,,,2018,payant:919;gratuit:4310;label-date:01/02/2003,label:musee de france,
2105404,1681385,Musée E.J Marey,,Place des Halles,21200,Beaune,France,fr,closed,47.0221265,4.836843691477009,,,,2018,payant:0;gratuit:0;label-date:01/02/2003,label:musee de france,
2123107,5141876795,Musée d'Art Sacré,,Rue Sainte-Anne,21000,Dijon,France,fr,open,47.3177794,5.0379087,,,,2018,payant:0;gratuit:12018;label-date:01/02/2003,label:musee de france,
2123103,2751550494,Musée Magnin,,Rue des Bons Enfants,21000,Dijon,France,fr,open,47.3209486,5.0422275,,,,2018,payant:7155;gratuit:10737;label-date:06/01/2002,label:musee de france,
2505604,7345774098,Musée Comtois,,Chemin de Ronde de la Citadelle,25000,Besançon,France,fr,open,47.2298091,6.034391,,,,2018,payant:34270;gratuit:0;label-date:01/02/2003,label:musee de france,
2505605,6354947603,Musée de la résistance et de la Déportation,,Chemin de Ronde de la Citadelle,25000,Besançon,France,fr,open,47.2290324,6.0349109,,,,2018,payant:48967;gratuit:0;label-date:01/02/2003,label:musee de france,
7013901,,Musée Départemental de la Montagne Albert Demard,,,,LE HAUT-DU-THEM,France,fr,open,,,,,,2018,payant:4463;gratuit:3564;label-date:01/02/2003,label:musee de france,
3930002,631011962,Musée des Beaux-Arts,,Place Philibert de Chalon,39000,Lons-le-Saunier,France,fr,open,46.6760636,5.5535325,,,,2018,payant:1019;gratuit:3348;label-date:01/02/2003,label:musee de france,
3936801,486032307,Viséum-Musée de la Lunette,,Place Jean Jaurès,39400,Morez,France,fr,open,46.5205705,6.0226517,,,,2018,payant:8531;gratuit:4046;label-date:26/05/2002,label:musee de france,
3947801,,Musée de l'Abbaye/Donations Guy Bardone - René Genis,,,,SAINT-CLAUDE,France,fr,open,,,,,,2018,payant:5762;gratuit:2589;label-date:01/02/2003,label:musee de france,
5815101,228160124,Musée de la Mine,,Rue Paul et Auguste Couture,58260,La Machine,France,fr,open,46.88884495,3.463816769519121,,,,2018,payant:5923;gratuit:885;label-date:01/02/2003,label:musee de france,
7101402,2380355755,Musée Rolin,,Place Saint-Louis,71400,Autun,France,fr,open,46.9456553,4.2993665,,,,2018,payant:10818;gratuit:8914;label-date:01/02/2003,label:musee de france,
7101404,223582725,Museum d'Histoire Naturelle Jacques de La Comble,,Allée Jacques de la Comble,71400,Autun,France,fr,open,46.9499423,4.3172422,,,,2018,payant:556;gratuit:2384;label-date:06/01/2002,label:musee de france,
7127002,700244362,Musée Lamartine,,Rue des Ursulines,71000,Saint-Clément,France,fr,open,46.307027,4.833142197130883,,,,2018,payant:0;gratuit:0;label-date:01/02/2003,label:musee de france,
7127201,6575800688,Musée Départemental du Compagnonnage,,Rue Pierre François Guillon,71570,Romanèche-Thorins,France,fr,open,46.1880514,4.733891,,,,2018,payant:1895;gratuit:2121;label-date:01/02/2003,label:musee de france,
9001002,79763460,Donation Maurice Jardot,8,Rue de Mulhouse,90000,Belfort,France,fr,open,47.6427099,6.8557239777834384,,,,2018,payant:945;gratuit:6004;label-date:01/02/2003,label:musee de france,
8902403,1256497741,Musée Leblanc-Duvernois,,Rue Gaston Gallimard,89600,Saint-Florentin,France,fr,open,48.0013166,3.7283151,,,,2018,payant:0;gratuit:1508;label-date:01/02/2003,label:musee de france,
2209301,123094895,Musée Mathurin Meheut,,Rue du Docteur Calmette,22400,Saint-Brieuc,France,fr,open,48.469658,-2.5154268059467917,,,,2018,payant:6417;gratuit:917;label-date:02/05/2002,label:musee de france,
2227801,78123314,Musée d'Art et d'Histoire,,Cour Francis Renaud,22000,Saint-Brieuc,France,fr,open,48.51234775,-2.7619036982498804,,,,2018,payant:0;gratuit:24195;label-date:01/02/2003,label:musee de france,
2901902,5882540291,Musée National de la Marine,,Rue Franklin Roosevelt,29200,Brest,France,fr,open,48.381272,-4.4923642,,,,2018,payant:37252;gratuit:36823;label-date:06/01/2002,label:musee de france,
2904601,40686013,Le Port-Musée,,Place de l'Enfer,29100,Ploaré,France,fr,open,48.092424,-4.332596723404256,,,,2018,payant:31134;gratuit:10405;label-date:01/02/2003,label:musee de france,
2921701,84081121,Musée de Pont-Aven,,Rue Louis Lomenech,29930,Pont-Aven,France,fr,open,47.8550965,-3.746406090032833,,,,2018,payant:69795;gratuit:24282;label-date:01/02/2003,label:musee de france,
2922001,,Musée Bigouden,,,,PONT-L'ABBE,France,fr,open,,,,,,2018,payant:10075;gratuit:3611;label-date:01/02/2003,label:musee de france,
2928901,1458523215,Musée de l'Ecole Rurale en Bretagne,,Route Départementale Numéro 60 de Landévennec à Dinéault,29560,Trégarvan,France,fr,open,48.2448847,-4.2263366,,,,2018,payant:8478;gratuit:1936;label-date:01/02/2003,label:musee de france,
3518801,187066533,Ecomusée du Pays de Montfort,,,35160,Montfort-sur-Meu,France,fr,closed,48.138191250000006,-1.9603132440564033,,,,2018,payant:0;gratuit:0;label-date:01/02/2003,label:musee de france,
3523803,178814913,Ecomusée du Pays de Rennes,,Route de Châtillon-Sur-Seiche,35230,Noyal-Châtillon-sur-Seiche,France,fr,open,48.07772335,-1.6663543566452403,,,,2018,payant:21212;gratuit:35965;label-date:01/02/2003,label:musee de france,
3523802,30437810,Musée des Beaux-Arts,20,Quai Émile Zola,35000,Rennes,France,fr,open,48.1096227,-1.6749412386363636,,,,2018,payant:25811;gratuit:83308;label-date:06/01/2002,label:musee de france,
5626002,145189774,Musée d'Histoire et d'Archéologie de Vannes,2,Rue Noé,56000,Vannes,France,fr,open,47.6568685,-2.7579838224637703,,,,2018,payant:3034;gratuit:7228;label-date:01/02/2003,label:musee de france,
